unique_id,transaction_id,unformatted_date,customer_id,product_id,product_name,category_id,category_name,parent_id,parent_name,product_count,site_id,site_name,address,city,zip,latitude,longitude,site_status,revenue,gross_profit,costs,units
2612027,20181219|562|3|2|4909048,3/14/19,6977.63,2179,HOT DOG FCS,280,Roller Grill Food,279,Roller Grill,9,297,562 Columbia,101 S Providence Rd,Columbia,65203,38.9509,-92.3362,ACTIVE,2.09,0.732,1.358,2
1281537,20170721|497|1|4|1771950,10/14/17,1240.056,917,32OZ KOOLEE REFILL,158,Carbonated Drinks,234,Frozen Dispensed Beverage,10,257,497 Patton,1000 State Route 51,Patton,63662,37.5003,-90.0134,ACTIVE,0.01,-1,1.01,1
2339438,20170628|302|2|2|4410239,9/21/17,NA,2348,20OZ COFFEE REFILL,147,Hot Bev-refills (305),232,Hot Dispensed Beverage,11,116,302 Parkersburg,602 Coates St,Parkersburg,50665,42.577,-92.7869,ACTIVE,1,0.533704,0.466296,1
126643,20181015|473|2|1|3513035,1/8/19,NA,594,CAMEL CRUSH MEN SLVR 85 BX,161,Cig-premium (331),8,Cigarettes,435,230,473 Hume,101 Main St,Hume,64752,38.091,-94.5834,ACTIVE,5.01,0.36513,4.64487,1
74185,20190817|953|2|2|2344053,11/10/19,NA,9697,BLACK&M WINE WDTP  5PK,324,Domestic,320,Cigars,51,459,953 Laramie,152 N 5Th St,Laramie,82072,41.3132,-105.591,ACTIVE,5.99,1.83467,4.15533,1
498571,20171210|446|1|1|1938749,3/5/18,NA,2566,SWISHER TRPFUS 2P99 CIGRL POCH,335,Tobacco-cigarillo (962),320,Cigars,342,207,446 Bessemer,750 Academy Drive,Bessemer,35022,40.1928,-92.5812,ACTIVE,0.99,0.34028,0.64972,1
71994,20161023|219|1|1|1500134,1/16/17,NA,12367,SKOAL SNUS SMTH MNT,334,Tobacco-round Can Snuff (960),321,Smokeless (951),363,80,219 Waverly,1311 4Th St Sw,Waverly,50677,42.7121,-92.4746,CLOSED,3.59,1.49667,2.09333,1
2868683,20190517|391|2|1|7433220,8/10/19,NA,5628,LARGE FTN,152,Cold Bev-retail (311),233,Cold Dispensed Beverage,11,161,391 Hamilton,1706 Military Street South,Hamilton,35570,34.4062,-91.4074,ACTIVE,1.49,0.610297,0.879703,1
2523329,20161027|368|1|100|2845898,1/19/17,NA,19020,No Lead Plus,1,Fuel Premuim,78,Fuel,68,137,368 Harrisburg,306 State St,Harrisburg,69345,41.5565,-103.741,ACTIVE,29.9,4.194,25.706,13.98
2557308,20170304|208|1|1|1959504,5/28/17,NA,6507,LOTTO,137,Lotto (271),136,Lotto (271),2,72,208 Dewar,5916 1St St,Dewar,50623,42.5253,-92.22,ACTIVE,8,8,0,1
111699,20180519|473|1|1|3285930,8/12/18,6414.77,2576,SWISHER BLK SMTH 2P99 CIGRL POCH,335,Tobacco-cigarillo (962),320,Cigars,342,230,473 Hume,101 Main St,Hume,64752,38.091,-94.5834,ACTIVE,0.99,0.36818,0.62182,1
1699367,20180415|914|2|1|3497322,7/9/18,7670.214,456,KICKSTART ORIG UL 16OZ CAN,250,Pk Bev-csd/pop (71),243,Pop (587),448,434,914 Centennial,2221 E Arapahoe Rd,Centennial,80122,39.5957,-104.963,ACTIVE,1.99,0.84625,1.14375,1
2014794,20181004|1837|1|100|1808646,12/28/18,NA,18963,DIESELBIO,1,Fuel Premuim,78,Fuel,68,55,1837 Winfield,2575 Us Hwy 43,Winfield,35594,36.5326,-98.1534,ACTIVE,84.01,8.1327,75.8773,27.109
1885558,20170321|2731|3|1|3636254,6/14/17,NA,993,IA QUICK $50 321,138,Gaming-lottery (scratch Tickt) (272),175,Lottery (360),1575,107,2731 Alta,106 S Cherokee St,Alta,51002,42.6745,-95.3054,ACTIVE,2,0.14,1.86,1
1734017,20170607|927|1|1|2398802,8/31/17,NA,5367,KOOLEE,158,Carbonated Drinks,234,Frozen Dispensed Beverage,10,442,927 Littleton,1500 W Littleton Blvd Ste 110-E,Littleton,80120,39.6124,-105.006,ACTIVE,1,1,0,1
647757,20190424|95|1|1|3599373,7/18/19,NA,1177,IA BNS CRSSWRD 953,138,Gaming-lottery (scratch Tickt) (272),175,Lottery (360),1575,457,95 Spencer,11 E 18Th St,Spencer,51301,43.1564,-95.1451,ACTIVE,6,0.42,5.58,2
250551,20180630|292|1|1|2770690,9/23/18,NA,2738,OLD GLD GLD BX,162,Cig-discount (332),8,Cigarettes,158,112,292 Aredale,117 E Main St,Aredale,50605,42.8351,-93.0034,ACTIVE,13.1,1.90182,11.19818,2
1853847,20180507|1837|2|1|1425374,7/31/18,7185.684,10812,SIGNATURE CHKN SAND,276,Hot Food,275,Hot Sandwiches & Chicken,207,55,1837 Winfield,2575 Us Hwy 43,Winfield,35594,36.5326,-98.1534,ACTIVE,3.29,2.162,1.128,1
1907028,20190320|4923|3|2|5268268,6/13/19,NA,10059,CO $50 SERIES II CASH CANNON BNKRL BLAST 856,138,Gaming-lottery (scratch Tickt) (272),175,Lottery (360),1575,250,4923 Commerce City,7351 Magnolia St,Commerce City,80022,39.8303,-104.911,ACTIVE,50,3.5,46.5,1
1965070,20161113|887|3|1|3775415,2/6/17,NA,18953,PrepayFuel,1,Fuel Premuim,78,Fuel,68,418,887 Greenfield,100 Madison St,Greenfield,73043,35.7276,-98.3789,ACTIVE,0,NA,NA,NA
1417265,20190710|561|5|5|9104907,10/3/19,NA,10818,ADD BRKFST SSG PATTY FCS,272,Breakfast Food,271,Breakfast Sandwiches,97,296,561 Gardendale,890 Odum Road,Gardendale,35071,39.8873,-94.8933,ACTIVE,3,1.77,1.23,6
943196,20190405|368|1|2|4520445,6/29/19,6521.962,10870,CRSNT BCN EGG CHZ FCS,272,Breakfast Food,271,Breakfast Sandwiches,97,137,368 Harrisburg,306 State St,Harrisburg,69345,41.5565,-103.741,ACTIVE,4.5,2.236,2.264,2
1184589,20171019|453|2|2|3862356,1/12/18,NA,9653,JOPLIN GLOBE,114,Nwspapers,183,Newspapers,296,210,453 Butler,114 W Ohio St,Butler,64730,38.2588,-94.334,ACTIVE,1.5,0.13,1.37,1
845746,20190714|237|1|3|4016743,10/7/19,NA,12362,COPENHGN LC WNTRGRN,334,Tobacco-round Can Snuff (960),321,Smokeless (951),363,95,237 Rowley,111 Ely St,Rowley,52329,42.3701,-91.8436,ACTIVE,5.89,1.555,4.335,1
1469446,20190919|571|3|1|4451873,12/13/19,NA,10785,CHRY SLCS 9.25OZ,267,Healthy Candy,331,Candy,230,305,571 Leeds,8551 Whitfield Ave,Leeds,35094,40.3385,-95.393,ACTIVE,1.79,1.125,0.665,1
2177129,20181024|237|1|100|3615088,1/17/19,NA,18980,G87E10S,1,Fuel Premuim,78,Fuel,68,95,237 Rowley,111 Ely St,Rowley,52329,42.3701,-91.8436,ACTIVE,81.87,8.9349,72.9351,29.783
1155866,20161209|423|2|2|1806109,3/4/17,NA,15196,AR TIC TAC TRIPLER 368,138,Gaming-lottery (scratch Tickt) (272),175,Lottery (360),1575,192,423 Adamsville,2473 Hackworth Road,Adamsville,35005,34.5253,-91.3257,ACTIVE,4,0.2,3.8,2
1577885,20181101|846|3|2|5334833,1/25/19,NA,9867,BIC LGHTR BIG,194,Gen Merch-smoking Assoc (428),182,Gm/novelty,56,386,846 Ozark,1537 Hwy 231 South,Ozark,36360,35.681,-94.7605,ACTIVE,1.99,1.16507,0.82493,1
2375150,20190912|24|1|1|5557674,12/6/19,NA,18234,LOTTERY WIN,135,Lottery-win (270),307,Store Services (92),1,97,24 Hazleton,200 Main St S,Hazleton,50641,42.6151,-91.906,ACTIVE,-4,0,0,4
362406,20171004|966|2|2|1862306,12/28/17,4425.148,3336,MARLB MEN SLATE BX,206,Cig-off Inv-premium (441),11,Off Invoice Cigs (104),199,470,966 Cowley,71 E Main St,Cowley,82420,44.8837,-108.468,ACTIVE,10.16,1.73222,8.42778,2
2073954,20171207|473|1|1|3078505,3/2/18,NA,18980,G87E10S,1,Fuel Premuim,78,Fuel,68,230,473 Hume,101 Main St,Hume,64752,38.091,-94.5834,ACTIVE,10,1.4292,8.5708,4.764
2115763,20181227|867|2|2|3276908,3/22/19,NA,18980,G87E10S,1,Fuel Premuim,78,Fuel,68,401,867 Caney,200 W Main St,Caney,74533,34.2321,-96.2133,ACTIVE,40,6.561,33.439,21.87
1932645,20161028|435|1|2|2317536,1/21/17,6221.746,18953,PrepayFuel,1,Fuel Premuim,78,Fuel,68,199,435 Golden City,519 Main St,Golden City,64748,37.3929,-94.0928,ACTIVE,0,NA,NA,NA
534484,20170120|203|2|1|1887738,4/15/17,NA,16120,ZONNIC CINN GUM 4MG,336,Tobacco-alternative (963),321,Smokeless (951),20,67,203 Waterloo,1422 Flammang Dr,Waterloo,50702,42.4583,-92.3276,CLOSED,4.89,1.42312,3.46688,1
1253391,20190427|480|5|2|4402978,7/21/19,3390.49,13642,DR PEPPER 1LT,250,Pk Bev-csd/pop (71),243,Pop (587),448,237,480 Ionia,206 N Main St,Ionia,65335,38.5027,-93.3235,ACTIVE,2,0.75872,1.24128,1
2263744,20171103|498|1|100|4646834,1/27/18,NA,18980,G87E10S,1,Fuel Premuim,78,Fuel,68,258,498 Calera,5100 Hwy 31,Calera,35040,40.0616,-94.7649,ACTIVE,27,3.4335,23.5665,11.445
1212155,20170709|470|1|1|3726077,10/2/17,NA,10375,MONSTER 16OZ,261,Pk Bev-energy (carbonated) Fs (79),242,Energy carbonated,268,227,470 Columbia,2300 Bernadette Dr Ste 200,Columbia,65203,38.9632,-92.3734,CLOSED,2.69,1.45065,1.23935,1
2067763,20170724|222|1|100|2674179,10/17/17,NA,18980,G87E10S,1,Fuel Premuim,78,Fuel,68,85,222 Pilot Mound,102 Pilot St,Pilot Mound,50223,42.162,-94.0176,ACTIVE,33.59,4.6896,28.9004,15.632
1143587,20180825|412|1|1|3358494,11/18/18,7194.12,6242,COKE 20OZ,250,Pk Bev-csd/pop (71),243,Pop (587),448,184,412 Gateway,17260 Highway 37 N,Gateway,72733,36.4909,-93.9312,ACTIVE,1.99,0.84679,1.14321,1
995800,20161230|382|2|1|2396022,3/25/17,1667.09,950,44OZ FTN REFILL,154,Cold Bev-refills (314),233,Cold Dispensed Beverage,8,152,382 Gentry,899 W Main St,Gentry,72734,36.2672,-94.4929,ACTIVE,1.19,0.757418,0.432582,1
536547,20180208|479|2|2|3754146,5/4/18,NA,240,STRBCKS FRAPP MOCHA 13.7OZ GLS,363,Coffee Drinks,36,Dairy,110,236,479 Lincoln,214 E Main St,Lincoln,65338,38.3907,-93.3343,CLOSED,3.19,1.52333,1.66667,1
65042,20190303|700|3|1|821139,5/27/19,5818.84,9141,MO TRIPLE BONUS CRSSWRD 246,138,Gaming-lottery (scratch Tickt) (272),175,Lottery (360),1575,350,700 Montgomery,6495 Atlanta Hwy,Montgomery,36117,39.0994,-91.6456,ACTIVE,15,0.75,14.25,3
545587,20190730|938|2|1|2877127,10/23/19,NA,6778,SKU ICE BAG 10LB,143,Ice (282),141,Ice (277),7,451,938 Pritchett,153 Randolph St,Pritchett,81064,37.368,-102.86,ACTIVE,2.99,1.644,1.346,1
1203174,20180309|465|1|3|3763078,6/2/18,NA,217,DT MT DEW 20OZ,250,Pk Bev-csd/pop (71),243,Pop (587),448,221,465 Sturgeon,111 N Wentz St,Sturgeon,65284,39.2347,-92.2822,ACTIVE,3,0.7155,2.2845,2
2252202,20190116|476|1|100|5039559,4/11/19,NA,18980,G87E10S,1,Fuel Premuim,78,Fuel,68,233,476 Birmingham,9248 Parkway East,Birmingham,35206,40.1128,-94.8225,ACTIVE,20.81,3.3762,17.4338,11.254
106416,20170121|961|1|1|1962060,4/16/17,NA,3517,MUNCHI CHZ FX  8OZ,58,Salty Snacks-other (157),5,Salty Snacks,161,467,961 Burlington,211 S Main St,Burlington,82411,44.4447,-108.431,ACTIVE,3.29,0.87,2.42,1
344672,20170815|554|1|1|3983767,11/8/17,NA,8971,MO 10 MONOPOLY 071,138,Gaming-lottery (scratch Tickt) (272),175,Lottery (360),1575,289,554 Saint Joseph,2514 Frederick Ave,Saint Joseph,64506,39.7767,-94.8298,CLOSED,10,0.5,9.5,1
1667733,20170202|890|2|2|1712515,4/28/17,NA,217,DT MT DEW 20OZ,250,Pk Bev-csd/pop (71),243,Pop (587),448,420,890 Hitchcock,107 W Main St,Hitchcock,73744,35.9682,-98.3491,ACTIVE,1.89,0.78118,1.10882,1
942670,20161019|368|2|2|2822336,1/12/17,7570.634,1298,JACKLI TRYK STK 1CT,66,Alt Snack-meat Snacks (171),146,Jerky (305),219,137,368 Harrisburg,306 State St,Harrisburg,69345,41.5565,-103.741,ACTIVE,2.39,2.05864,0.33136,1
1264491,20170924|497|2|2|1958375,12/18/17,NA,1839,POLICE/FIRE FTN DISCOUNT,152,Cold Bev-retail (311),233,Cold Dispensed Beverage,11,257,497 Patton,1000 State Route 51,Patton,63662,37.5003,-90.0134,ACTIVE,0,0,0,NA
660096,20170423|120|1|3|394090,7/17/17,NA,6322,SPRITE 2LT,250,Pk Bev-csd/pop (71),243,Pop (587),448,10,120 Clanton,1415 7Th Street South,Clanton,35045,43.2007,-91.1525,ACTIVE,2.39,0.92714,1.46286,1
1194168,20180521|465|2|2|3941200,8/14/18,NA,17104,BODY ARMOR TROP PNCH 28OZ,252,Sports Drinks,150,Juice/tonics,132,221,465 Sturgeon,111 N Wentz St,Sturgeon,65284,39.2347,-92.2822,ACTIVE,2,0.5,1.5,1
1653735,20171204|887|2|2|4712916,2/27/18,NA,10864,CRSNT SSG EGG CHZ FCS,272,Breakfast Food,271,Breakfast Sandwiches,97,418,887 Greenfield,100 Madison St,Greenfield,73043,35.7276,-98.3789,ACTIVE,2.25,1.316,0.934,1
1138704,20180628|412|1|1|3242934,9/21/18,1402.934,10803,BISCUITS N GRAVY  HALF FCS,272,Breakfast Food,271,Breakfast Sandwiches,97,184,412 Gateway,17260 Highway 37 N,Gateway,72733,36.4909,-93.9312,ACTIVE,1.99,1.683,0.307,1
2215099,20190626|391|2|1|7555742,9/19/19,10122.49,18980,G87E10S,1,Fuel Premuim,78,Fuel,68,161,391 Hamilton,1706 Military Street South,Hamilton,35570,34.4062,-91.4074,ACTIVE,10,1.3047,8.6953,4.349
91400,20190630|381|2|1|4686880,9/23/19,10074.554,1372,JACKLI TRYK BF JRKY 3.25OZ,66,Alt Snack-meat Snacks (171),146,Jerky (305),219,151,381 Midway,323 Highway 178 W,Midway,72651,36.3862,-92.4672,ACTIVE,5,0.69333,4.30667,1
2584067,20190218|535|5|2|3728812,5/14/19,NA,6507,LOTTO,137,Lotto (271),136,Lotto (271),2,280,535 Lowden,308 Washington Ave,Lowden,52255,41.858,-90.9264,ACTIVE,25,25,0,1
331665,20161114|484|1|2|3009158,2/7/17,NA,6246,COKE 12OZ GLS,250,Pk Bev-csd/pop (71),243,Pop (587),448,241,484 Zalma,7173 Main St,Zalma,63787,37.158,-90.1214,CLOSED,1.59,0.57078,1.01922,1
1760405,20170803|952|3|1|3637606,10/27/17,NA,6264,FRESCA 20OZ,250,Pk Bev-csd/pop (71),243,Pop (587),448,458,952 Tie Siding,1741 S Us Highway 287,Tie Siding,82084,41.0813,-105.509,ACTIVE,1.5,0.44444,1.05556,1
367734,20180405|1871|2|2|163605,6/29/18,NA,11933,GUMOUT 2X FUEL INJECT 6OZ,128,Auto-other Additives (245),174,Automotive (35),69,58,1871 Vestavia Hills,1300 Montgomery Highway,Vestavia Hills,35216,35.8138,-94.6289,ACTIVE,3.99,1.75429,2.23571,1
2778154,20161211|229|1|1|3691593,3/6/17,NA,10468,X-LARGE FTN,152,Cold Bev-retail (311),233,Cold Dispensed Beverage,11,92,229 Independence,200 2Nd Ave Ne,Independence,50644,42.47,-91.893,ACTIVE,3.38,2.127424,1.252576,2
2750148,20170115|487|2|2|1948352,4/10/17,NA,216,MT DEW 20OZ,250,Pk Bev-csd/pop (71),243,Pop (587),448,244,487 Glenallen,1 Short St,Glenallen,63751,37.3172,-90.0274,ACTIVE,1.6,0.50444,1.09556,1
1765846,20170411|952|2|1|3425956,7/5/17,NA,2324,LD NTTY BAR 2CT BAR 3OZ,60,Cakes & pastrie,262,Bread & Cakes,217,458,952 Tie Siding,1741 S Us Highway 287,Tie Siding,82084,41.0813,-105.509,ACTIVE,0.75,0.27,0.48,1
1666286,20180922|890|3|1|2735242,12/16/18,NA,15032,MENS OSU T SHRT,193,Wearables,14,Clothing,1437,420,890 Hitchcock,107 W Main St,Hitchcock,73744,35.9682,-98.3491,ACTIVE,13.99,6.99,7,1
1808903,20180803|979|1|3|1171930,10/27/18,NA,10990,HAM & SWISS ARTISAN BUN,274,Cold Food,273,Cold Sandwiches,34,479,979 Gillette,2005 S Douglas Hwy,Gillette,82718,44.2762,-105.493,ACTIVE,3.99,2.664,1.326,1
1181158,20190128|453|3|1|4862549,4/23/19,NA,3309,L&M 100 BX,207,Cig-off Inv-discount (442),11,Off Invoice Cigs (104),27,210,453 Butler,114 W Ohio St,Butler,64730,38.2588,-94.334,ACTIVE,4.61,0.84,3.77,1
222496,20181202|615|3|1|3214053,2/25/19,NA,5145,SKITTLE 2.17OZ REG,267,Healthy Candy,331,Candy,230,318,615 Stickney,309 Main St,Stickney,57375,43.5894,-98.4377,ACTIVE,1.49,0.865,0.625,1
2141638,20191003|50|2|2|4160585,12/27/19,4550.842,18980,G87E10S,1,Fuel Premuim,78,Fuel,68,260,50 Andalusia,540 West Bypass,Andalusia,36420,41.2039,-94.4171,ACTIVE,25,3.0876,21.9124,10.292
2721569,20170918|152|4|1|5028601,12/12/17,4267.958,3002,MARLB GLD BX,206,Cig-off Inv-premium (441),11,Off Invoice Cigs (104),199,42,152 Wilmot,202 Mccombs St,Wilmot,71676,33.0593,-91.5728,ACTIVE,11.98,0.32798,11.65202,2
651517,20180203|95|1|3|2937512,4/29/18,NA,6246,COKE 12OZ GLS,250,Pk Bev-csd/pop (71),243,Pop (587),448,457,95 Spencer,11 E 18Th St,Spencer,51301,43.1564,-95.1451,ACTIVE,1.59,0.57,1.02,1
1409485,20181018|561|2|2|8133228,1/11/19,NA,6301,POWERADE GRP 32OZ,252,Sports Drinks,150,Juice/tonics,132,296,561 Gardendale,890 Odum Road,Gardendale,35071,39.8873,-94.8933,ACTIVE,1.66,0.57444,1.08556,1
2060312,20180729|2926|1|100|2991503,10/22/18,NA,18973,G85E10S,1,Fuel Premuim,78,Fuel,68,114,2926 Commerce City,8096 Brighton Rd,Commerce City,80022,39.8437,-104.921,ACTIVE,28.75,2.7831,25.9669,9.277
1162917,20170630|433|2|1|4201493,9/23/17,1797.772,5368,KOOLEE,158,Carbonated Drinks,234,Frozen Dispensed Beverage,10,197,433 Bay Minette,701 Mcmeans Ave,Bay Minette,36507,40.1474,-92.3793,ACTIVE,2,2,0,2
1639328,20190520|886|1|2|5440570,8/13/19,NA,7524,RED BULL PEAR EDT SF 12OZ,261,Pk Bev-energy (carbonated) Fs (79),242,Energy carbonated,268,417,886 Geary,120 Nw 1St St,Geary,73040,35.6319,-98.3186,ACTIVE,2.75,0.82696,1.92304,1
2278538,20171126|556|3|2|3032712,2/19/18,340.436,18980,G87E10S,1,Fuel Premuim,78,Fuel,68,291,556 Saint Joseph,3906 Oakland Ave,Saint Joseph,64506,39.7825,-94.799,ACTIVE,20,2.7039,17.2961,9.013
1551931,20180131|670|4|2|5624606,4/26/18,NA,3204,MARLB MEN GLD BX S50 SPNSH,206,Cig-off Inv-premium (441),11,Off Invoice Cigs (104),199,339,670 Alamosa,505 3Rd St,Alamosa,81101,37.4708,-105.865,ACTIVE,5.96,1.0325,4.9275,1
2819728,20180501|650|1|2|3915024,7/25/18,7414.278,5365,LARGE COFFEE,145,Hot Disp Bev-retail (301),232,Hot Dispensed Beverage,9,327,650 Thornton,8804 Washington St,Thornton,80229,39.8564,-104.978,ACTIVE,1.69,0.902491,0.787509,1
688488,20190731|143|1|1|5930278,10/24/19,NA,9198,ESSENTIA WTR 1LT,255,Bottled Water,150,Juice/tonics,174,27,143 Haleyville,42417 Hwy 195,Haleyville,35565,34.1177,-91.3771,ACTIVE,4,1.5,2.5,2
1997663,20181217|187|2|2|2638503,3/12/19,NA,18963,DIESELBIO,1,Fuel Premuim,78,Fuel,68,57,187 Tallassee,1300 Gilmer Ave,Tallassee,36078,46.6472,-93.1276,ACTIVE,201.23,21.0414,180.1886,70.138
2856874,20190921|156|3|2|3619556,12/15/19,NA,5628,LARGE FTN,152,Cold Bev-retail (311),233,Cold Dispensed Beverage,11,46,156 Semmes,7855 Moffett Rd,Semmes,36575,41.9024,-91.9226,ACTIVE,1.49,0.966561,0.523439,1
860898,20171019|250|3|1|4174331,1/12/18,NA,15085,F REAL MANGO SMTH 16OZ,159,Still Drinks,234,Frozen Dispensed Beverage,26,101,250 Ayr,4075 W Lincoln St,Ayr,68925,40.4372,-98.4387,ACTIVE,3.19,3.19,0,1
1087528,20170519|397|3|1|3812428,8/12/17,NA,15220,AR PLATINUM 7S 392,138,Gaming-lottery (scratch Tickt) (272),175,Lottery (360),1575,166,397 Pea Ridge,468 N Curtis Ave,Pea Ridge,72751,36.4456,-94.1154,ACTIVE,5,0.25,4.75,1
1848826,20171205|1837|2|2|1056030,2/28/18,NA,4343,REESES FST BRK 3.5OZ KS,266,Vegan Candy,331,Candy,304,55,1837 Winfield,2575 Us Hwy 43,Winfield,35594,36.5326,-98.1534,ACTIVE,1.99,0.93895,1.05105,1
583721,20161118|29|1|100|3295194,2/11/17,NA,19024,Soy Diesel,1,Fuel Premuim,78,Fuel,68,111,29 Washburn,303 Main St,Washburn,65772,36.5885,-93.9646,ACTIVE,20.01,2.6925,17.3175,8.975
1739758,20190909|930|1|1|4613049,12/3/19,NA,5345,JUICY DROP POP SKU .92OZ,267,Healthy Candy,331,Candy,230,445,930 Aurora,2500 S Abilene St,Aurora,80014,39.6704,-104.828,ACTIVE,2.29,1.07667,1.21333,1
1467995,20180904|571|3|1|3740040,11/28/18,3161.554,9100,MO 777 203,138,Gaming-lottery (scratch Tickt) (272),175,Lottery (360),1575,305,571 Leeds,8551 Whitfield Ave,Leeds,35094,40.3385,-95.393,ACTIVE,4,0.2,3.8,2
1135923,20171116|412|1|2|2890246,2/9/18,NA,3788,BAKENET HT N SPCY 2.6OZ,58,Salty Snacks-other (157),5,Salty Snacks,161,184,412 Gateway,17260 Highway 37 N,Gateway,72733,36.4909,-93.9312,ACTIVE,1.69,0.51,1.18,1
1192178,20190218|465|2|2|4635796,5/14/19,7294.864,5564,GRIZZLY FC WNTRGRN,334,Tobacco-round Can Snuff (960),321,Smokeless (951),363,221,465 Sturgeon,111 N Wentz St,Sturgeon,65284,39.2347,-92.2822,ACTIVE,4.19,1.13333,3.05667,1
2151805,20190422|143|1|100|5724118,7/16/19,10311.852,18980,G87E10S,1,Fuel Premuim,78,Fuel,68,27,143 Haleyville,42417 Hwy 195,Haleyville,35565,34.1177,-91.3771,ACTIVE,44.05,5.2248,38.8252,17.416
154350,20170716|361|2|2|2288222,10/9/17,NA,12498,MENTOS FRT 1.32OZ REG,264,Mints,331,Candy,45,131,361 Oakdale,500 Hohman St,Oakdale,68761,42.0694,-97.9698,ACTIVE,1.29,0.66611,0.62389,1
1558603,20190313|670|1|100|6872217,6/6/19,2341.224,18978,G87E10M-B34,1,Fuel Premuim,78,Fuel,68,339,670 Alamosa,505 3Rd St,Alamosa,81101,37.4708,-105.865,ACTIVE,35.02,4.0737,30.9463,13.579
2422815,20190801|979|2|2|1734599,10/25/19,1406.18,839,SMALL COFFEE,145,Hot Disp Bev-retail (301),232,Hot Dispensed Beverage,9,479,979 Gillette,2005 S Douglas Hwy,Gillette,82718,44.2762,-105.493,ACTIVE,3.18,1.708277,1.471723,2
838992,20181219|229|4|2|5269742,3/14/19,NA,11054,SLC PZ BRKFST 13IN FCS,287,Slices,277,Pizza,39,92,229 Independence,200 2Nd Ave Ne,Independence,50644,42.47,-91.893,ACTIVE,1,0.69,0.31,1
1288442,20190911|498|2|2|6141825,12/5/19,NA,5185,DOVE MLK CHOC BAR 1.44OZ REG,266,Vegan Candy,331,Candy,304,258,498 Calera,5100 Hwy 31,Calera,35040,40.0616,-94.7649,ACTIVE,1.59,0.9075,0.6825,1
1557784,20190902|670|1|2|7443336,11/26/19,NA,3752,DORITO NCHO 3.1OZ,53,Salty Snacks -tort/corn Chips (152),5,Salty Snacks,243,339,670 Alamosa,505 3Rd St,Alamosa,81101,37.4708,-105.865,ACTIVE,1.89,0.57829,1.31171,1
133141,20170521|435|1|2|2670625,8/14/17,NA,9050,MO $500 MADNESS 153,138,Gaming-lottery (scratch Tickt) (272),175,Lottery (360),1575,199,435 Golden City,519 Main St,Golden City,64748,37.3929,-94.0928,ACTIVE,10,0.5,9.5,2
1441941,20170701|562|1|2|3765076,9/24/17,NA,3779,CHEETO CRNCHY 3.5OZ,53,Salty Snacks -tort/corn Chips (152),5,Salty Snacks,243,297,562 Columbia,101 S Providence Rd,Columbia,65203,38.9509,-92.3362,ACTIVE,1.5,0.32042,1.17958,1
2109725,20171012|203|1|100|2191996,1/5/18,NA,18980,G87E10S,1,Fuel Premuim,78,Fuel,68,67,203 Waterloo,1422 Flammang Dr,Waterloo,50702,42.4583,-92.3276,CLOSED,19.75,2.409,17.341,8.03
1928911,20170829|487|2|2|2227382,11/22/17,NA,18953,PrepayFuel,1,Fuel Premuim,78,Fuel,68,244,487 Glenallen,1 Short St,Glenallen,63751,37.3172,-90.0274,ACTIVE,0,NA,NA,NA
1724123,20190720|921|3|2|3793882,10/13/19,NA,12749,PERRIER SPRKLNG STRWBRY 16.9OZ,255,Bottled Water,150,Juice/tonics,174,440,921 Greenwood Vlg,8525 E Arapahoe Rd,Greenwood Vlg,80112,39.5964,-104.891,ACTIVE,1.49,0.74496,0.74504,1
485691,20190807|388|2|1|2719833,10/31/19,NA,3331,MARLB EDGE BX,206,Cig-off Inv-premium (441),11,Off Invoice Cigs (104),199,158,388 Decatur,750 E Roller Ave,Decatur,72722,36.3362,-94.4536,ACTIVE,5.75,0.39333,5.35667,1
2483748,20161220|520|5|1|3783095,3/15/17,NA,14921,POP DEP SINGLE,187,Pk Bev-pop Deposit (411),244,Pop Deposits (588),7,274,520 Atlantic,1630 E 7Th St,Atlantic,50022,41.4048,-94.9895,ACTIVE,0.05,0,0.05,NA
365461,20170531|873|3|2|2182388,8/24/17,6583.844,18767,LINDT HELLO CRML BRWNIE STK 1.4OZ,266,Vegan Candy,331,Candy,304,405,873 Turpin,419 S Main St,Turpin,73950,36.8634,-100.878,ACTIVE,1.49,0.76786,0.72214,1
2738514,20180131|59|1|1|3231221,4/26/18,5929.286,18384,BEER DEP SINGLE,186,Beer-deposits (410),247,Beer Deposits (66),13,313,59 Meservey,421 1St St,Meservey,50457,42.9122,-93.4784,ACTIVE,0.1,0,0.1,NA
1677330,20180804|891|1|1|2927145,10/28/18,NA,17067,RXBAR CHOC SSLT 1.83OZ,70,Healthy Snacks,65,Health Snacks,184,421,891 Canton,202 W Main St,Canton,73724,36.0537,-98.5899,ACTIVE,2.99,1.50667,1.48333,1
2316359,20180913|887|1|100|5322959,12/7/18,NA,18980,G87E10S,1,Fuel Premuim,78,Fuel,68,418,887 Greenfield,100 Madison St,Greenfield,73043,35.7276,-98.3789,ACTIVE,40.36,4.6233,35.7367,15.411
1669214,20170820|890|2|2|2070855,11/13/17,NA,18235,LOTTO WIN,137,Lotto (271),136,Lotto (271),2,420,890 Hitchcock,107 W Main St,Hitchcock,73744,35.9682,-98.3491,ACTIVE,-20,0,0,20
2488372,20190617|535|1|2|3981370,9/10/19,NA,14921,POP DEP SINGLE,187,Pk Bev-pop Deposit (411),244,Pop Deposits (588),7,280,535 Lowden,308 Washington Ave,Lowden,52255,41.858,-90.9264,ACTIVE,0.15,0,0.15,NA
1962843,20161226|878|2|2|3320287,3/21/17,NA,18953,PrepayFuel,1,Fuel Premuim,78,Fuel,68,410,878 Forgan,115 S Broadway St,Forgan,73938,36.9063,-100.535,ACTIVE,0,NA,NA,NA
833302,20170423|229|1|1|3983290,7/17/17,NA,4716,X-LARGE KOOLEE,158,Carbonated Drinks,234,Frozen Dispensed Beverage,10,92,229 Independence,200 2Nd Ave Ne,Independence,50644,42.47,-91.893,ACTIVE,1.99,1.176021,0.813979,1
2776970,20180619|226|1|2|4837032,9/12/18,3459.546,10468,X-LARGE FTN,152,Cold Bev-retail (311),233,Cold Dispensed Beverage,11,89,226 Quasqueton,113 E Dubuque St,Quasqueton,52326,42.3946,-91.7603,ACTIVE,1,-0.091891,1.091891,1
1199983,20170208|465|3|2|2775260,5/4/17,NA,2162,SLC PZ SSG 13IN FCS,287,Slices,277,Pizza,39,221,465 Sturgeon,111 N Wentz St,Sturgeon,65284,39.2347,-92.2822,ACTIVE,2,1.136,0.864,2
2668228,20181223|200|4|1|5199733,3/18/19,NA,5538,MEDIUM FTN,152,Cold Bev-retail (311),233,Cold Dispensed Beverage,11,64,200 Cedar Falls,221 W 6Th St,Cedar Falls,50613,42.5336,-92.4478,ACTIVE,1.29,0.836351,0.453649,1
821428,20171206|228|2|2|4677637,3/1/18,NA,10293,MONSTER REHAB RSPBRY TEA 15.5OZ,142,Energy non-carb FS (279),215,Energy non-carb,59,91,228 Brandon,704 Main St,Brandon,52210,42.3147,-92.0057,ACTIVE,5.5,1.56349,3.93651,3
1868278,20190424|1903|1|3|1485409,7/18/19,NA,11051,SLC PZ SSG 13IN FCS,287,Slices,277,Pizza,39,59,1903 Selma,1501 Hwy 14 East,Selma,36703,39.8282,-105.036,ACTIVE,3,2.298,0.702,3
730919,20171009|158|3|2|6468106,1/2/18,NA,15238,AR $100000 TRIPLE PLAY 410,138,Gaming-lottery (scratch Tickt) (272),175,Lottery (360),1575,49,158 Russellville,13675 Hwy 43,Russellville,35653,33.2376,-91.5121,ACTIVE,5,0.25,4.75,1
2093505,20171029|386|1|100|2256092,1/22/18,3922.746,18980,G87E10S,1,Fuel Premuim,78,Fuel,68,156,386 Gravette,613 Main St Sw,Gravette,72736,36.4217,-94.4614,ACTIVE,25.08,3.4689,21.6111,11.563
2861434,20190601|237|3|2|3945687,8/25/19,5951.7,5628,LARGE FTN,152,Cold Bev-retail (311),233,Cold Dispensed Beverage,11,95,237 Rowley,111 Ely St,Rowley,52329,42.3701,-91.8436,ACTIVE,1,0.136267,0.863733,1
1371167,20180623|551|1|2|3632023,9/16/18,2142.302,4916,ADVIL PM MD LD 4CT,112,Pain Relievers,127,Health & Beauty,43,287,551 Ashland,131 E Broadway,Ashland,65010,38.7749,-92.2606,ACTIVE,2.69,1.745,0.945,1
1131624,20171020|409|3|1|4196292,1/13/18,NA,279,PEPSI MAX 20OZ,250,Pk Bev-csd/pop (71),243,Pop (587),448,181,409 Cave Springs,115 E Midway St,Cave Springs,72718,36.2636,-94.2313,ACTIVE,1.89,0.76733,1.12267,1
972245,20190320|370|4|2|5370284,6/13/19,NA,2403,MM ORNG JC 12OZ,260,Pk Bev-juice No Tax (78),151,Juice No Tax (311),95,140,370 Dunning,403 Jewett Ave,Dunning,68833,41.8281,-100.105,ACTIVE,1.89,0.77223,1.11777,1
2676517,20190205|385|2|2|4644437,5/1/19,NA,5538,MEDIUM FTN,152,Cold Bev-retail (311),233,Cold Dispensed Beverage,11,155,385 Bentonville,1706 S Walton Blvd,Bentonville,72712,36.3531,-94.212,ACTIVE,1.29,0.832949,0.457051,1
1371242,20190608|551|2|1|4166417,9/1/19,NA,10548,FRT PNCH SPL 10OZ,253,Juice Drinks,150,Juice/tonics,106,287,551 Ashland,131 E Broadway,Ashland,65010,38.7749,-92.2606,ACTIVE,0.99,0.62,0.37,1
732793,20170207|158|1|1|5704687,5/3/17,3630.508,10809,SEC PRTZL BUN FCS,272,Breakfast Food,271,Breakfast Sandwiches,97,49,158 Russellville,13675 Hwy 43,Russellville,35653,33.2376,-91.5121,ACTIVE,2.69,2.367,0.323,1
1993791,20170520|930|1|1|3187111,8/13/17,4198.32,5388,MEDIUM COFFEE,145,Hot Disp Bev-retail (301),232,Hot Dispensed Beverage,9,445,930 Aurora,2500 S Abilene St,Aurora,80014,39.6704,-104.828,ACTIVE,1.59,0.854966,0.735034,1
1158749,20161112|433|2|1|3545693,2/5/17,NA,2101,STARBUR GMYBRST HB 6OZ,267,Healthy Candy,331,Candy,230,197,433 Bay Minette,701 Mcmeans Ave,Bay Minette,36507,40.1474,-92.3793,ACTIVE,2.79,1.485,1.305,1
2645116,20190828|447|2|1|4160328,11/21/19,4064.674,5538,MEDIUM FTN,152,Cold Bev-retail (311),233,Cold Dispensed Beverage,11,208,447 Lamar,131 W 11Th St,Lamar,64759,37.4941,-94.2775,ACTIVE,1,1,0,1
94881,20171224|953|2|2|1870633,3/19/18,5206.676,15944,ASSOCIATE DISCOUNT ONSHIFT,343,Coupons (970),362,SKU Coupons (98),56,459,953 Laramie,152 N 5Th St,Laramie,82072,41.3132,-105.591,ACTIVE,0,NA,NA,1
1189190,20170124|453|2|2|3290115,4/19/17,NA,3785,CHEETO JMBO PUFF 3.6OZ,53,Salty Snacks -tort/corn Chips (152),5,Salty Snacks,243,210,453 Butler,114 W Ohio St,Butler,64730,38.2588,-94.334,ACTIVE,1.49,0.45,1.04,1
680876,20170420|143|1|1|4113205,7/14/17,NA,5368,KOOLEE,158,Carbonated Drinks,234,Frozen Dispensed Beverage,10,27,143 Haleyville,42417 Hwy 195,Haleyville,35565,34.1177,-91.3771,ACTIVE,1.79,1.057859,0.732141,1
2611155,20161103|535|2|2|1964398,1/27/17,NA,2179,HOT DOG FCS,280,Roller Grill Food,279,Roller Grill,9,280,535 Lowden,308 Washington Ave,Lowden,52255,41.858,-90.9264,ACTIVE,1.59,1.069,0.521,1
215120,20161205|361|3|2|2016570,2/28/17,NA,348,KICKSTART ORNG 16OZ CAN,250,Pk Bev-csd/pop (71),243,Pop (587),448,131,361 Oakdale,500 Hohman St,Oakdale,68761,42.0694,-97.9698,ACTIVE,1.5,0.42133,1.07867,1
2292831,20180326|571|3|1|3424856,6/19/18,NA,18980,G87E10S,1,Fuel Premuim,78,Fuel,68,305,571 Leeds,8551 Whitfield Ave,Leeds,35094,40.3385,-95.393,ACTIVE,25,3.2202,21.7798,10.734
44528,20180812|2217|2|2|285265,11/5/18,3932.234,15944,ASSOCIATE DISCOUNT ONSHIFT,343,Coupons (970),362,SKU Coupons (98),56,84,2217 Ogden,202 Sw 4Th St,Ogden,50212,42.0378,-94.0322,CLOSED,0,NA,NA,1
1617470,20190510|878|1|1|4693032,8/3/19,7838.7,6668,GATOR FRT PNCH 28OZ,252,Sports Drinks,150,Juice/tonics,132,410,878 Forgan,115 S Broadway St,Forgan,73938,36.9063,-100.535,ACTIVE,2.69,1.5136,1.1764,1
1933859,20170728|29|1|1|3912661,10/21/17,4412.766,18953,PrepayFuel,1,Fuel Premuim,78,Fuel,68,111,29 Washburn,303 Main St,Washburn,65772,36.5885,-93.9646,ACTIVE,0,NA,NA,NA
915767,20170609|362|3|1|4369532,9/2/17,NA,15212,AR 100X 384,138,Gaming-lottery (scratch Tickt) (272),175,Lottery (360),1575,132,362 Norfork,13862 Highway 5 S,Norfork,72658,36.2088,-92.2863,ACTIVE,10,0.5,9.5,1
1931964,20170615|991|1|1|1990279,9/8/17,NA,18953,PrepayFuel,1,Fuel Premuim,78,Fuel,68,485,991 Binger,224 W Main St,Binger,73009,35.3086,-98.3442,CLOSED,0,NA,NA,NA
1177213,20170603|442|2|1|3228160,8/27/17,NA,2919,PALLM MEN WHT 100 BX,162,Cig-discount (332),8,Cigarettes,158,205,442 Mindenmines,604 Main St,Mindenmines,64769,37.4744,-94.5887,ACTIVE,3.78,0.77357,3.00643,1
1427361,20180824|561|1|5|7907515,11/17/18,NA,6700,GATOR FRT PNCH 64OZ,252,Sports Drinks,150,Juice/tonics,132,296,561 Gardendale,890 Odum Road,Gardendale,35071,39.8873,-94.8933,ACTIVE,3.79,1.8084,1.9816,1
2185118,20170817|302|1|100|4553160,11/10/17,NA,18980,G87E10S,1,Fuel Premuim,78,Fuel,68,116,302 Parkersburg,602 Coates St,Parkersburg,50665,42.577,-92.7869,ACTIVE,25.48,3.4761,22.0039,11.587
2864029,20180703|368|1|2|4034188,9/26/18,1996.992,5628,LARGE FTN,152,Cold Bev-retail (311),233,Cold Dispensed Beverage,11,137,368 Harrisburg,306 State St,Harrisburg,69345,41.5565,-103.741,ACTIVE,1,1,0,1
1197315,20180104|465|1|1|3625168,3/30/18,NA,17095,BODY ARMOR LYTE PCH MNGO 16OZ,252,Sports Drinks,150,Juice/tonics,132,221,465 Sturgeon,111 N Wentz St,Sturgeon,65284,39.2347,-92.2822,ACTIVE,3,0.585,2.415,2
760196,20161017|171|1|1|2270427,1/10/17,NA,5679,LARGE CUP OF ICE,156,Cold Bev-other (316),233,Cold Dispensed Beverage,2,53,171 Scottsboro,24833 Johnt Reidprkw,Scottsboro,35768,36.2661,-92.5383,ACTIVE,0.49,0.317523,0.172477,1
1676864,20180618|891|3|1|2828418,9/11/18,NA,10330,MONSTER REHAB PCH 16OZ,142,Energy non-carb FS (279),215,Energy non-carb,59,421,891 Canton,202 W Main St,Canton,73724,36.0537,-98.5899,ACTIVE,2.69,1.19,1.5,1
271797,20190727|700|1|100|1130005,10/20/19,NA,19002,GE85,1,Fuel Premuim,78,Fuel,68,350,700 Montgomery,6495 Atlanta Hwy,Montgomery,36117,39.0994,-91.6456,ACTIVE,33.34,4.7649,28.5751,15.883
864026,20180402|250|3|1|4497650,6/26/18,NA,3435,MUNCHI CHDR MIX XL 8OZ,58,Salty Snacks-other (157),5,Salty Snacks,161,101,250 Ayr,4075 W Lincoln St,Ayr,68925,40.4372,-98.4387,ACTIVE,3.29,0.87,2.42,1
1632624,20180808|881|2|2|6795249,11/1/18,NA,13823,EL SABROSO SALSITAS TCHP 3OZ,53,Salty Snacks -tort/corn Chips (152),5,Salty Snacks,243,413,881 Erick,119 W 3Rd St,Erick,73645,35.2141,-99.8677,ACTIVE,1.49,0.79121,0.69879,1
1376387,20190609|551|2|2|4167988,9/2/19,NA,13636,A&W CRM SDA 20OZ,250,Pk Bev-csd/pop (71),243,Pop (587),448,287,551 Ashland,131 E Broadway,Ashland,65010,38.7749,-92.2606,ACTIVE,1.58,0.52,1.06,1
7862,20180916|338|1|1|1851744,12/10/18,NA,2129,MARLB DISCOUNT,209,Cig-Off Inv-Prem Disc Items (447),11,Off Invoice Cigs (104),31,124,338 Hastings,300 N Kansas Ave,Hastings,68901,40.5864,-98.3858,CLOSED,0.01,-0.01,0.02,NA
326749,20180731|26|3|3|3124209,10/24/18,NA,6669,GATOR ORNG 28OZ,252,Sports Drinks,150,Juice/tonics,132,104,26 Aitkin,15 Minnesota Ave N,Aitkin,56431,46.5321,-93.707,ACTIVE,2.59,1.51714,1.07286,1
1282628,20190904|498|5|1|6124293,11/28/19,NA,9141,MO TRIPLE BONUS CRSSWRD 246,138,Gaming-lottery (scratch Tickt) (272),175,Lottery (360),1575,258,498 Calera,5100 Hwy 31,Calera,35040,40.0616,-94.7649,ACTIVE,5,0.25,4.75,1
2791260,20170815|878|1|1|3725121,11/8/17,5292.64,10468,X-LARGE FTN,152,Cold Bev-retail (311),233,Cold Dispensed Beverage,11,410,878 Forgan,115 S Broadway St,Forgan,73938,36.9063,-100.535,ACTIVE,1,-0.001672,1.001672,1
1497983,20180204|631|3|1|3382082,4/30/18,NA,15333,NOS 24OZ,261,Pk Bev-energy (carbonated) Fs (79),242,Energy carbonated,268,324,631 Hitchcock,386 Clarke St,Hitchcock,57348,44.6302,-98.4081,ACTIVE,3.49,1.35304,2.13696,1
820185,20170328|228|3|1|4083313,6/21/17,NA,3125,MARLB BLND NO 27 BX S1,206,Cig-off Inv-premium (441),11,Off Invoice Cigs (104),199,91,228 Brandon,704 Main St,Brandon,52210,42.3147,-92.0057,ACTIVE,5.29,0.61733,4.67267,1
769682,20190106|200|3|1|5222455,4/1/19,NA,4362,KITKAT 3OZ KS,285,Gluten Free Candy,331,Candy,62,64,200 Cedar Falls,221 W 6Th St,Cedar Falls,50613,42.5336,-92.4478,ACTIVE,1.99,0.90437,1.08563,1
2230207,20181217|409|1|100|5121934,3/12/19,NA,18980,G87E10S,1,Fuel Premuim,78,Fuel,68,181,409 Cave Springs,115 E Midway St,Cave Springs,72718,36.2636,-94.2313,ACTIVE,19.77,2.9667,16.8033,9.889
2067663,20170929|986|4|1|2061871,12/23/17,NA,18980,G87E10S,1,Fuel Premuim,78,Fuel,68,482,986 Apache,302 E Evans Ave,Apache,73006,34.8936,-98.363,ACTIVE,8,1.1169,6.8831,3.723
433853,20171120|865|1|1|3140388,2/13/18,NA,6452,SKU MONEY ORDER,133,Money order (263),308,Store Services (92),1,399,865 Lane,11820 E Highway 3,Lane,74555,34.298,-95.9867,ACTIVE,0,NA,NA,NA
2707196,20171003|887|2|2|4585451,12/27/17,6585.332,5538,MEDIUM FTN,152,Cold Bev-retail (311),233,Cold Dispensed Beverage,11,418,887 Greenfield,100 Madison St,Greenfield,73043,35.7276,-98.3789,ACTIVE,1.09,1.09,0,1
2051085,20170810|933|1|100|2607720,11/3/17,3813.66,18973,G85E10S,1,Fuel Premuim,78,Fuel,68,447,933 Las Animas,513 6Th St,Las Animas,81054,38.0661,-103.223,ACTIVE,20.85,2.8974,17.9526,9.658
2738981,20190514|80|3|3|3200165,8/7/19,NA,18384,BEER DEP SINGLE,186,Beer-deposits (410),247,Beer Deposits (66),13,365,80 Swaledale,202 5Th St S,Swaledale,50477,42.9779,-93.3154,ACTIVE,0.05,0,0.05,NA
2492382,20171027|1097|1|1|666187,1/20/18,NA,14921,POP DEP SINGLE,187,Pk Bev-pop Deposit (411),244,Pop Deposits (588),7,5,1097 Enterprise,600 Boll Weevil Circle,Enterprise,36330,40.648,-92.8406,ACTIVE,0.2,0,0.2,NA
2324398,20191002|1097|1|100|2121665,12/26/19,NA,18980,G87E10S,1,Fuel Premuim,78,Fuel,68,5,1097 Enterprise,600 Boll Weevil Circle,Enterprise,36330,40.648,-92.8406,ACTIVE,39.62,4.8729,34.7471,16.243
80476,20180518|184|3|1|204058,8/11/18,NA,5368,KOOLEE,158,Carbonated Drinks,234,Frozen Dispensed Beverage,10,56,184 Talladega,214 Haynes Street,Talladega,35160,42.5659,-92.1603,ACTIVE,1,1,0,1
2350390,20190706|1871|2|1|1286339,9/29/19,NA,18998,G91E10P,1,Fuel Premuim,78,Fuel,68,58,1871 Vestavia Hills,1300 Montgomery Highway,Vestavia Hills,35216,35.8138,-94.6289,ACTIVE,15,1.7517,13.2483,5.839
1488414,20171216|578|3|2|4029676,3/11/18,4706.826,6636,PROPEL ZRO WTRMLN 20OZ,255,Bottled Water,150,Juice/tonics,174,310,578 Millbrook,145 Kelley Blvd,Millbrook,36054,39.2417,-91.6434,ACTIVE,1.99,1.0225,0.9675,1
449224,20161225|487|4|2|1921357,3/20/17,NA,3752,DORITO NCHO 3.1OZ,53,Salty Snacks -tort/corn Chips (152),5,Salty Snacks,243,244,487 Glenallen,1 Short St,Glenallen,63751,37.3172,-90.0274,ACTIVE,1.49,0.45,1.04,1
1480430,20171126|578|3|1|3990473,2/19/18,NA,3412,CHESTER PFD CRN 4.5OZ,53,Salty Snacks -tort/corn Chips (152),5,Salty Snacks,243,310,578 Millbrook,145 Kelley Blvd,Millbrook,36054,39.2417,-91.6434,ACTIVE,2,0.53,1.47,1
2869288,20170629|393|1|1|4984975,9/22/17,3101.934,5628,LARGE FTN,152,Cold Bev-retail (311),233,Cold Dispensed Beverage,11,162,393 Henderson,13091 Highway 62 E,Henderson,72544,36.3832,-92.191,ACTIVE,1,1,0,1
2094056,20170921|570|1|2|57000,12/15/17,7929.068,18980,G87E10S,1,Fuel Premuim,78,Fuel,68,304,570 Hueytown,1007 Red Farmer Drive,Hueytown,35023,41.9966,-91.8623,ACTIVE,20.31,2.5398,17.7702,8.466
1371518,20190227|551|2|2|4010067,5/23/19,9588.416,2663,SWISHER WLD RSH 2P99  CIGRL POCH,335,Tobacco-cigarillo (962),320,Cigars,342,287,551 Ashland,131 E Broadway,Ashland,65010,38.7749,-92.2606,ACTIVE,0.99,0.341,0.649,1
620804,20180101|51|1|1|3446274,3/27/18,NA,18732,BEER DEP 6PK,186,Beer-deposits (410),247,Beer Deposits (66),13,267,51 Griswold,608 4Th St,Griswold,51535,41.2335,-95.1403,ACTIVE,0.3,0,0.3,NA
136085,20180501|912|2|1|2458042,7/25/18,1994.898,7541,RED BULL 8.4OZ,261,Pk Bev-energy (carbonated) Fs (79),242,Energy carbonated,268,432,912 Englewood,915 W Lehigh Ave,Englewood,80110,39.648,-104.998,ACTIVE,2.49,1.09824,1.39176,1
1102817,20170517|401|2|3|4084374,8/10/17,NA,10302,MONSTER UL ZRO 16OZ,261,Pk Bev-energy (carbonated) Fs (79),242,Energy carbonated,268,172,401 Rogers,401 N 8Th St,Rogers,72756,36.3364,-94.1246,ACTIVE,5,1.21217,3.78783,3
682988,20180828|143|2|1|5251574,11/21/18,5730.084,5608,MEDIUM CUP OF ICE,156,Cold Bev-other (316),233,Cold Dispensed Beverage,2,27,143 Haleyville,42417 Hwy 195,Haleyville,35565,34.1177,-91.3771,ACTIVE,1.18,0.449112,0.730888,2
1167505,20170520|433|2|1|4090890,8/13/17,NA,9035,MO 50X CASH 137,138,Gaming-lottery (scratch Tickt) (272),175,Lottery (360),1575,197,433 Bay Minette,701 Mcmeans Ave,Bay Minette,36507,40.1474,-92.3793,ACTIVE,10,0.5,9.5,1
2743358,20180519|229|4|1|4778496,8/12/18,NA,18384,BEER DEP SINGLE,186,Beer-deposits (410),247,Beer Deposits (66),13,92,229 Independence,200 2Nd Ave Ne,Independence,50644,42.47,-91.893,ACTIVE,0.05,0,0.05,NA
2110170,20180810|570|1|100|341637,11/3/18,NA,18980,G87E10S,1,Fuel Premuim,78,Fuel,68,304,570 Hueytown,1007 Red Farmer Drive,Hueytown,35023,41.9966,-91.8623,ACTIVE,66.07,7.0812,58.9888,23.604
1561759,20190501|670|2|2|7027192,7/25/19,10555.798,11082,3 CHOC CHP COOKIES,270,Bakery Food,269,Bakery,112,339,670 Alamosa,505 3Rd St,Alamosa,81101,37.4708,-105.865,ACTIVE,2,1.049,0.951,1
2337871,20161208|143|2|2|3779215,3/3/17,NA,2348,20OZ COFFEE REFILL,147,Hot Bev-refills (305),232,Hot Dispensed Beverage,11,27,143 Haleyville,42417 Hwy 195,Haleyville,35565,34.1177,-91.3771,ACTIVE,1.19,0.649968,0.540032,1
1586194,20180603|846|1|100|4972656,8/27/18,NA,19002,GE85,1,Fuel Premuim,78,Fuel,68,386,846 Ozark,1537 Hwy 231 South,Ozark,36360,35.681,-94.7605,ACTIVE,36.25,5.1804,31.0696,17.268
36490,20170710|208|4|1|2116025,10/3/17,487.186,4365,HERSHEY ALMND 1.45OZ REG,266,Vegan Candy,331,Candy,304,72,208 Dewar,5916 1St St,Dewar,50623,42.5253,-92.22,ACTIVE,2.5,1.21556,1.28444,2
1803183,20171006|975|4|2|2763466,12/30/17,4392.344,10344,MONSTER UL VIOLET 16OZ,261,Pk Bev-energy (carbonated) Fs (79),242,Energy carbonated,268,477,975 Boulder,1905 28Th St,Boulder,80301,40.0201,-105.26,ACTIVE,2.69,1.37667,1.31333,1
2529812,20170328|406|2|2|4241535,6/21/17,NA,19020,No Lead Plus,1,Fuel Premuim,78,Fuel,68,178,406 Harrison,215 W Industrial Park Rd,Harrison,72601,36.2509,-93.1298,ACTIVE,20,2.9427,17.0573,9.809
883526,20180425|251|5|1|2023126,7/19/18,NA,11054,SLC PZ BRKFST 13IN FCS,287,Slices,277,Pizza,39,102,251 Albert City,114 Main St,Albert City,50510,42.7819,-94.9476,ACTIVE,1,0.761,0.239,1
1895338,20180405|2926|2|2|2816155,6/29/18,2453.208,5158,STARBUR ORG MEGA STK 3.45OZ KS,267,Healthy Candy,331,Candy,230,114,2926 Commerce City,8096 Brighton Rd,Commerce City,80022,39.8437,-104.921,ACTIVE,1.99,0.89474,1.09526,1
1394806,20190511|560|2|2|5588340,8/4/19,9255.622,7498,RED BULL 8.4OZ 4PK,261,Pk Bev-energy (carbonated) Fs (79),242,Energy carbonated,268,295,560 Columbia,3709 Sandman Ln,Columbia,65201,38.9096,-92.3341,ACTIVE,6.99,1.4384,5.5516,1
1521566,20170203|657|2|1|3113676,4/29/17,NA,6333,POWERADE ZRO MIX BRY 32OZ,252,Sports Drinks,150,Juice/tonics,132,330,657 Aurora,15355 E Colfax Ave Unit A,Aurora,80011,39.742,-104.809,ACTIVE,4,1.814,2.186,2
2613523,20171129|670|3|1|5455565,2/22/18,NA,2179,HOT DOG FCS,280,Roller Grill Food,279,Roller Grill,9,339,670 Alamosa,505 3Rd St,Alamosa,81101,37.4708,-105.865,ACTIVE,1.69,1.07,0.62,1
2814039,20181105|453|3|3|4682996,1/29/19,NA,5365,LARGE COFFEE,145,Hot Disp Bev-retail (301),232,Hot Dispensed Beverage,9,210,453 Butler,114 W Ohio St,Butler,64730,38.2588,-94.334,ACTIVE,1.69,1.69,0,1
2663631,20161224|120|2|1|213605,3/19/17,NA,5538,MEDIUM FTN,152,Cold Bev-retail (311),233,Cold Dispensed Beverage,11,10,120 Clanton,1415 7Th Street South,Clanton,35045,43.2007,-91.1525,ACTIVE,1.29,0.836818,0.453182,1
2555237,20161230|4923|1|100|3113220,3/25/17,NA,19020,No Lead Plus,1,Fuel Premuim,78,Fuel,68,250,4923 Commerce City,7351 Magnolia St,Commerce City,80022,39.8303,-104.911,ACTIVE,15,1.9743,13.0257,6.581
1256356,20170112|493|2|2|3496075,4/7/17,NA,3774,RUFFLE CSC 2.1OZ,52,Potato Chips,2,Chips,251,252,493 Brewton,2041 Douglas Avenue,Brewton,36426,40.025,-94.9733,ACTIVE,1.49,0.45,1.04,1
298628,20170309|316|1|2|1490253,6/2/17,3249.81,1842,DONUT RAISED FCS,270,Bakery Food,269,Bakery,112,119,316 Mobile,5245 Rangeline Service Rd,Mobile,36619,39.9883,-104.818,ACTIVE,0.99,0.537,0.453,1
2822622,20181027|905|2|1|3993293,1/20/19,NA,5365,LARGE COFFEE,145,Hot Disp Bev-retail (301),232,Hot Dispensed Beverage,9,427,905 Mobile,685 Schillinger Rd,Mobile,36695,39.8319,-105.004,ACTIVE,1.69,0.923573,0.766427,1
1923927,20170403|430|1|2|1144452,6/27/17,NA,18953,PrepayFuel,1,Fuel Premuim,78,Fuel,68,194,430 Lanesboro,302 Main St,Lanesboro,51451,42.1834,-94.6921,CLOSED,0,NA,NA,NA
728498,20180714|156|1|3|3006732,10/7/18,NA,15510,JUUL PODS MNG 4PK 5%,339,Cartridges,337,E-Cigarettes,142,46,156 Semmes,7855 Moffett Rd,Semmes,36575,41.9024,-91.9226,ACTIVE,15.99,6.17638,9.81362,1
2154514,20180629|146|3|2|5941669,9/22/18,NA,18980,G87E10S,1,Fuel Premuim,78,Fuel,68,33,146 Bella Vista,1750 Forest Hills Blvd,Bella Vista,72715,36.4649,-94.302,ACTIVE,5,0.5772,4.4228,1.924
1025685,20181220|385|2|1|4554846,3/15/19,NA,1316,JACKLI TRYK JMBO 2OZ,66,Alt Snack-meat Snacks (171),146,Jerky (305),219,155,385 Bentonville,1706 S Walton Blvd,Bentonville,72712,36.3531,-94.212,ACTIVE,3.49,1.57471,1.91529,1
1817220,20161125|979|1|3|289143,2/18/17,5185.09,1268,HNY NUT CHEERIOS CEREAL 1.4OZ BAR,70,Healthy Snacks,65,Health Snacks,184,479,979 Gillette,2005 S Douglas Hwy,Gillette,82718,44.2762,-105.493,ACTIVE,0.99,0.54222,0.44778,1
2086505,20181006|248|2|1|2546514,12/30/18,6090.612,18980,G87E10S,1,Fuel Premuim,78,Fuel,68,100,248 Newell,119 S Fulton St,Newell,50568,42.6056,-95.0022,CLOSED,25,2.6889,22.3111,8.963
1052690,20180219|391|3|3|6103928,5/14/18,NA,2503,SWISHER DMNDS SO2 CIGRL POCH,335,Tobacco-cigarillo (962),320,Cigars,342,161,391 Hamilton,1706 Military Street South,Hamilton,35570,34.4062,-91.4074,ACTIVE,1.89,0.6966,1.1934,1
894576,20181209|302|3|2|5599734,3/4/19,NA,217,DT MT DEW 20OZ,250,Pk Bev-csd/pop (71),243,Pop (587),448,116,302 Parkersburg,602 Coates St,Parkersburg,50665,42.577,-92.7869,ACTIVE,1.99,0.8331,1.1569,1
1717627,20180917|921|2|3|3278944,12/11/18,NA,13641,DR PEPPER 20OZ,250,Pk Bev-csd/pop (71),243,Pop (587),448,440,921 Greenwood Vlg,8525 E Arapahoe Rd,Greenwood Vlg,80112,39.5964,-104.891,ACTIVE,1.99,0.86601,1.12399,1
1084325,20180822|397|1|2|4764676,11/15/18,3247.022,419,BRISK STRWBRY MLN TEA 1LT,253,Juice Drinks,150,Juice/tonics,106,166,397 Pea Ridge,468 N Curtis Ave,Pea Ridge,72751,36.4456,-94.1154,ACTIVE,1.49,0.78333,0.70667,1
752223,20170810|171|1|1|3168849,11/3/17,NA,6257,DASANI 20OZ,255,Bottled Water,150,Juice/tonics,174,53,171 Scottsboro,24833 Johnt Reidprkw,Scottsboro,35768,36.2661,-92.5383,ACTIVE,1.49,0.84415,0.64585,1
1457461,20190731|563|1|2|4590372,10/24/19,656.9,13754,SMART WTR 700ML,255,Bottled Water,150,Juice/tonics,174,298,563 Jackson,4206 N College Ave,Jackson,36545,40.4403,-95.3812,ACTIVE,3,1.15454,1.84546,2
2501866,20161030|953|1|100|1476706,1/23/17,NA,19020,No Lead Plus,1,Fuel Premuim,78,Fuel,68,459,953 Laramie,152 N 5Th St,Laramie,82072,41.3132,-105.591,ACTIVE,40.77,5.3433,35.4267,17.811
961946,20190321|370|1|100|5373919,6/14/19,NA,18987,G88E15-B92,1,Fuel Premuim,78,Fuel,68,140,370 Dunning,403 Jewett Ave,Dunning,68833,41.8281,-100.105,ACTIVE,66.63,7.8417,58.7883,26.139
233319,20180506|320|1|100|111521,7/30/18,NA,18962,DIESEL,1,Fuel Premuim,78,Fuel,68,122,320 Northglenn,850 W 112Th Ave,Northglenn,80234,39.8994,-104.998,ACTIVE,86.88,8.691,78.189,28.97
2562108,20181021|388|3|1|2441251,1/14/19,NA,6507,LOTTO,137,Lotto (271),136,Lotto (271),2,158,388 Decatur,750 E Roller Ave,Decatur,72722,36.3362,-94.4536,ACTIVE,6,6,0,1
384590,20170913|361|1|1|2363164,12/7/17,NA,6338,COKE 16OZ CAN,250,Pk Bev-csd/pop (71),243,Pop (587),448,131,361 Oakdale,500 Hohman St,Oakdale,68761,42.0694,-97.9698,ACTIVE,1.29,0.65,0.64,1
983598,20180125|371|2|2|3995798,4/20/18,6463.998,10827,PNUT BTR CRSPY BITES FCS,270,Bakery Food,269,Bakery,112,141,371 Cedar Rapids,214 W Main St,Cedar Rapids,68627,41.5602,-98.1452,ACTIVE,1.99,1.091,0.899,1
523138,20170816|254|1|1|2221036,11/9/17,NA,6247,COKE 1LT,250,Pk Bev-csd/pop (71),243,Pop (587),448,103,254 Rembrandt,107 E Main St,Rembrandt,50576,42.8258,-95.1655,ACTIVE,2.19,0.97162,1.21838,1
1786708,20170430|973|3|1|3533082,7/24/17,NA,8814,FIJI 1LT,255,Bottled Water,150,Juice/tonics,174,476,973 Lafayette,603 S Public Rd,Lafayette,80026,39.9932,-105.091,ACTIVE,4.5,1.35866,3.14134,2
2484189,20181107|520|3|2|5271722,1/31/19,NA,14921,POP DEP SINGLE,187,Pk Bev-pop Deposit (411),244,Pop Deposits (588),7,274,520 Atlantic,1630 E 7Th St,Atlantic,50022,41.4048,-94.9895,ACTIVE,0.1,0,0.1,NA
460967,20180811|26|6|1|3146226,11/4/18,NA,471,DT PEPSI 1LT,250,Pk Bev-csd/pop (71),243,Pop (587),448,104,26 Aitkin,15 Minnesota Ave N,Aitkin,56431,46.5321,-93.707,ACTIVE,2.29,0.63,1.66,1
2031131,20171012|650|1|2|3548201,1/5/18,NA,18973,G85E10S,1,Fuel Premuim,78,Fuel,68,327,650 Thornton,8804 Washington St,Thornton,80229,39.8564,-104.978,ACTIVE,20,2.5221,17.4779,8.407
2782689,20190722|401|3|2|5945056,10/15/19,NA,10468,X-LARGE FTN,152,Cold Bev-retail (311),233,Cold Dispensed Beverage,11,172,401 Rogers,401 N 8Th St,Rogers,72756,36.3364,-94.1246,ACTIVE,1.79,0.691291,1.098709,1
530298,20171216|876|2|2|3080055,3/10/18,NA,9867,BIC LGHTR BIG,194,Gen Merch-smoking Assoc (428),182,Gm/novelty,56,408,876 Bokchito,118 W Main St,Bokchito,74726,34.0169,-96.1456,ACTIVE,1.89,1.09,0.8,1
252025,20170527|916|4|1|1166620,8/20/17,NA,3125,MARLB BLND NO 27 BX S1,206,Cig-off Inv-premium (441),11,Off Invoice Cigs (104),199,436,916 Pagosa Springs,250 Hot Springs Blvd,Pagosa Springs,81147,37.2639,-107.009,CLOSED,5.35,1.19167,4.15833,1
1294312,20170611|498|1|1|4270937,9/4/17,NA,1505,BUD LT 12PK GLS,196,Beer-premium (42),246,Beer,186,258,498 Calera,5100 Hwy 31,Calera,35040,40.0616,-94.7649,ACTIVE,10.99,3.53484,7.45516,1
1103313,20170609|401|2|2|4142634,9/2/17,NA,7497,RED BULL SF 8.4OZ,261,Pk Bev-energy (carbonated) Fs (79),242,Energy carbonated,268,172,401 Rogers,401 N 8Th St,Rogers,72756,36.3364,-94.1246,ACTIVE,2.49,1.08483,1.40517,1
259203,20170426|986|2|1|1910740,7/20/17,NA,6452,SKU MONEY ORDER,133,Money order (263),308,Store Services (92),1,482,986 Apache,302 E Evans Ave,Apache,73006,34.8936,-98.363,ACTIVE,0,NA,NA,NA
1484200,20171208|578|3|2|4014387,3/3/18,NA,9075,MO HOLIDAY CASH 178,138,Gaming-lottery (scratch Tickt) (272),175,Lottery (360),1575,310,578 Millbrook,145 Kelley Blvd,Millbrook,36054,39.2417,-91.6434,ACTIVE,1,0.05,0.95,1
1992605,20190130|891|3|1|3253999,4/25/19,NA,5388,MEDIUM COFFEE,145,Hot Disp Bev-retail (301),232,Hot Dispensed Beverage,9,421,891 Canton,202 W Main St,Canton,73724,36.0537,-98.5899,ACTIVE,1.69,0.921902,0.768098,1
1088995,20191001|397|3|1|5683895,12/25/19,2716.594,15842,NAKED JC BLU SMTHIE 15.2OZ,260,Pk Bev-juice No Tax (78),151,Juice No Tax (311),95,166,397 Pea Ridge,468 N Curtis Ave,Pea Ridge,72751,36.4456,-94.1154,ACTIVE,3.49,1.56429,1.92571,1
2388430,20180420|563|1|1|3553408,7/14/18,NA,18234,LOTTERY WIN,135,Lottery-win (270),307,Store Services (92),1,298,563 Jackson,4206 N College Ave,Jackson,36545,40.4403,-95.3812,ACTIVE,-13,0,0,13
1203282,20180329|465|3|1|3810455,6/22/18,NA,18780,EVAN WILLIAMS 375ML,173,Whiskey,249,Liquor,201,221,465 Sturgeon,111 N Wentz St,Sturgeon,65284,39.2347,-92.2822,ACTIVE,8.99,3.84444,5.14556,1
2357198,20180922|497|1|100|2948451,12/16/18,4829.536,18998,G91E10P,1,Fuel Premuim,78,Fuel,68,257,497 Patton,1000 State Route 51,Patton,63662,37.5003,-90.0134,ACTIVE,51.91,5.0247,46.8853,16.749
2305046,20190816|877|1|100|5320984,11/9/19,NA,18980,G87E10S,1,Fuel Premuim,78,Fuel,68,409,877 Kenefic,117 Mary St,Kenefic,74748,34.1441,-96.3633,ACTIVE,13.34,1.8456,11.4944,6.152
2451428,20190406|51|2|2|4040424,6/30/19,NA,14921,POP DEP SINGLE,187,Pk Bev-pop Deposit (411),244,Pop Deposits (588),7,267,51 Griswold,608 4Th St,Griswold,51535,41.2335,-95.1403,ACTIVE,0.05,0,0.05,NA
414655,20171018|865|1|1|3105538,1/11/18,NA,10412,WTR SPRTCAP 20OZ,255,Bottled Water,150,Juice/tonics,174,399,865 Lane,11820 E Highway 3,Lane,74555,34.298,-95.9867,ACTIVE,0.99,0.81067,0.17933,1
1274086,20170911|497|3|3|1923060,12/5/17,NA,7508,RED BULL RDEDT 12OZ,261,Pk Bev-energy (carbonated) Fs (79),242,Energy carbonated,268,257,497 Patton,1000 State Route 51,Patton,63662,37.5003,-90.0134,ACTIVE,3.29,1.36305,1.92695,1
154841,20190312|1475|5|1|933525,6/5/19,5515.582,9639,52OZ FTN REFILL,154,Cold Bev-refills (314),233,Cold Dispensed Beverage,8,37,1475 Montgomery,851 Ann St,Montgomery,36107,39.3071,-91.486,ACTIVE,1.49,0.965973,0.524027,1
719211,20190521|152|2|2|6507319,8/14/19,NA,8891,ARKANSAS DEMOCRAT,114,Nwspapers,183,Newspapers,296,42,152 Wilmot,202 Mccombs St,Wilmot,71676,33.0593,-91.5728,ACTIVE,1,0.138,0.862,1
1895841,20190422|2926|2|1|3381423,7/16/19,NA,5364,32OZ FTN REFILL,154,Cold Bev-refills (314),233,Cold Dispensed Beverage,8,114,2926 Commerce City,8096 Brighton Rd,Commerce City,80022,39.8437,-104.921,ACTIVE,1,1,0,1
970497,20170913|370|3|3|3954638,12/7/17,NA,4733,LOL MILK CHOC 2% ESL QT,332,Flavored Milk,180,Milk,37,140,370 Dunning,403 Jewett Ave,Dunning,68833,41.8281,-100.105,ACTIVE,2.59,1.02231,1.56769,1
453536,20161225|435|1|2|2448491,3/20/17,NA,18958,Premium Blend,1,Fuel Premuim,78,Fuel,68,199,435 Golden City,519 Main St,Golden City,64748,37.3929,-94.0928,ACTIVE,10,1.1412,8.8588,3.804
275283,20161105|447|2|1|2732780,1/29/17,NA,6690,GATOR COOL BLU 24OZ,252,Sports Drinks,150,Juice/tonics,132,208,447 Lamar,131 W 11Th St,Lamar,64759,37.4941,-94.2775,ACTIVE,2.19,1.06667,1.12333,1
677581,20190621|143|1|1|5848164,9/13/19,NA,15087,F REAL MNTCHP MLKSHK 16OZ,159,Still Drinks,234,Frozen Dispensed Beverage,26,27,143 Haleyville,42417 Hwy 195,Haleyville,35565,34.1177,-91.3771,ACTIVE,6.38,2.215873,4.164127,2
2063376,20180414|4923|1|100|4331545,7/8/18,NA,18973,G85E10S,1,Fuel Premuim,78,Fuel,68,250,4923 Commerce City,7351 Magnolia St,Commerce City,80022,39.8303,-104.911,ACTIVE,13.43,1.4661,11.9639,4.887
1515403,20180811|650|2|1|4129615,11/4/18,NA,2376,SIMPLY ORNG 11.5OZ,260,Pk Bev-juice No Tax (78),151,Juice No Tax (311),95,327,650 Thornton,8804 Washington St,Thornton,80229,39.8564,-104.978,ACTIVE,1,-0.18,1.18,1
1004114,20180710|383|1|2|5951199,10/3/18,NA,291,MT DEW VOLTAGE 20OZ,250,Pk Bev-csd/pop (71),243,Pop (587),448,153,383 Rogers,4600 W Walnut St,Rogers,72756,36.3337,-94.1811,ACTIVE,1.99,0.86065,1.12935,1
618257,20170620|51|2|2|3145759,9/13/17,NA,1010,IA BRONZE 9S 338,138,Gaming-lottery (scratch Tickt) (272),175,Lottery (360),1575,267,51 Griswold,608 4Th St,Griswold,51535,41.2335,-95.1403,ACTIVE,1,0.07,0.93,1
1828015,20190215|1056|2|2|1382922,5/11/19,3436.73,18235,LOTTO WIN,137,Lotto (271),136,Lotto (271),2,3,1056 Rockwell City,520 4Th St,Rockwell City,50579,42.3938,-94.6338,ACTIVE,-2,0,0,2
575697,20190301|28|1|2|3091672,5/25/19,NA,18908,BEER DEP 24PK,186,Beer-deposits (410),247,Beer Deposits (66),13,108,28 Sioux Rapids,114 Thomas St,Sioux Rapids,50585,42.8925,-95.1503,ACTIVE,1.2,0,1.2,NA
1199046,20180508|465|8|2|3908889,8/1/18,7188.006,15626,CROWN ROYAL REGAL APL 375ML,173,Whiskey,249,Liquor,201,221,465 Sturgeon,111 N Wentz St,Sturgeon,65284,39.2347,-92.2822,ACTIVE,35.98,11.5,24.48,2
33731,20180516|858|2|1|2101767,8/9/18,NA,4988,DAWN ORIG SOAP 8OZ,81,Non-edible Groc-dish (202),91,Food-Grocery,9,393,858 Watonga,121 N Noble Ave,Watonga,73772,35.8453,-98.4133,ACTIVE,2.29,1.135,1.155,1
2308991,20180328|881|1|100|6370684,6/21/18,7710.228,18980,G87E10S,1,Fuel Premuim,78,Fuel,68,413,881 Erick,119 W 3Rd St,Erick,73645,35.2141,-99.8677,ACTIVE,23,2.937,20.063,9.79
130254,20171204|494|2|1|1524466,2/27/18,NA,9060,MO $1000000 FORTUNE 163,138,Gaming-lottery (scratch Tickt) (272),175,Lottery (360),1575,253,494 Moulton,15445 Highway 24,Moulton,35650,39.2107,-91.7252,ACTIVE,10,0.5,9.5,1
2612162,20181031|567|1|2|3567973,1/24/19,8052.808,2179,HOT DOG FCS,280,Roller Grill Food,279,Roller Grill,9,301,567 Jacksonville,1625 Pelham South,Jacksonville,36265,40.4123,-95.5157,ACTIVE,1.69,1.014,0.676,1
2772081,20170622|840|1|2|3276687,9/15/17,NA,10468,X-LARGE FTN,152,Cold Bev-retail (311),233,Cold Dispensed Beverage,11,382,840 Albany,109 N Wade St,Albany,74721,33.8818,-96.162,CLOSED,1,1,0,1
2756483,20180407|250|3|1|4506924,7/1/18,NA,216,MT DEW 20OZ,250,Pk Bev-csd/pop (71),243,Pop (587),448,101,250 Ayr,4075 W Lincoln St,Ayr,68925,40.4372,-98.4387,ACTIVE,3.2,0.8841,2.3159,2
1493201,20180803|631|3|1|3670382,10/27/18,NA,10277,COOKIE FCS,270,Bakery Food,269,Bakery,112,324,631 Hitchcock,386 Clarke St,Hitchcock,57348,44.6302,-98.4081,ACTIVE,3.5,1.298,2.202,6
1761930,20180418|952|3|1|4046003,7/12/18,7115.402,10803,BISCUITS N GRAVY  HALF FCS,272,Breakfast Food,271,Breakfast Sandwiches,97,458,952 Tie Siding,1741 S Us Highway 287,Tie Siding,82084,41.0813,-105.509,ACTIVE,1.99,1.494,0.496,1
854156,20170120|237|2|2|2582292,4/15/17,1951.698,19024,Soy Diesel,1,Fuel Premuim,78,Fuel,68,95,237 Rowley,111 Ely St,Rowley,52329,42.3701,-91.8436,ACTIVE,40,5.0442,34.9558,16.814
1266132,20170502|497|3|3|1538779,7/26/17,6602.786,13657,DT DR PEPPER CHRY 20OZ,250,Pk Bev-csd/pop (71),243,Pop (587),448,257,497 Patton,1000 State Route 51,Patton,63662,37.5003,-90.0134,ACTIVE,3,0.768,2.232,2
213313,20180213|473|1|1|3157686,5/9/18,2261.108,4214,WHITEO FLFR PNAPL 2/99,335,Tobacco-cigarillo (962),320,Cigars,342,230,473 Hume,101 Main St,Hume,64752,38.091,-94.5834,ACTIVE,0.99,0.375,0.615,1
1762517,20190111|952|3|1|4553384,4/6/19,NA,11131,SLC PZ RSTD VEGETABLE,287,Slices,277,Pizza,39,458,952 Tie Siding,1741 S Us Highway 287,Tie Siding,82084,41.0813,-105.509,ACTIVE,1.99,1.505,0.485,1
2389679,20180130|650|4|1|3748520,4/25/18,6081.062,18234,LOTTERY WIN,135,Lottery-win (270),307,Store Services (92),1,327,650 Thornton,8804 Washington St,Thornton,80229,39.8564,-104.978,ACTIVE,-5,0,0,5
2704080,20180511|877|3|2|4518450,8/4/18,6742.656,5538,MEDIUM FTN,152,Cold Bev-retail (311),233,Cold Dispensed Beverage,11,409,877 Kenefic,117 Mary St,Kenefic,74748,34.1441,-96.3633,ACTIVE,2,2,0,2
1118178,20170804|406|1|2|4598678,10/28/17,NA,2053,WRIGLEY 5 RPM MNT 15PC,263,Gum,119,Gum,128,178,406 Harrison,215 W Industrial Park Rd,Harrison,72601,36.2509,-93.1298,ACTIVE,1.89,0.96957,0.92043,1
2510545,20161028|835|2|1|183232,1/21/17,NA,19020,No Lead Plus,1,Fuel Premuim,78,Fuel,68,378,835 Caddo,127 W Buffalo St,Caddo,74729,34.1256,-96.2611,CLOSED,15,2.4606,12.5394,8.202
2214872,20171122|391|1|100|5885266,2/15/18,NA,18980,G87E10S,1,Fuel Premuim,78,Fuel,68,161,391 Hamilton,1706 Military Street South,Hamilton,35570,34.4062,-91.4074,ACTIVE,12.99,1.7481,11.2419,5.827
711617,20181201|152|5|1|6101409,2/24/19,NA,2986,MARLB BX,206,Cig-off Inv-premium (441),11,Off Invoice Cigs (104),199,42,152 Wilmot,202 Mccombs St,Wilmot,71676,33.0593,-91.5728,ACTIVE,7.12,1.00684,6.11316,1
679813,20190507|143|2|1|5755500,7/31/19,6997.694,6262,MELLO YELLO 20OZ,250,Pk Bev-csd/pop (71),243,Pop (587),448,27,143 Haleyville,42417 Hwy 195,Haleyville,35565,34.1177,-91.3771,ACTIVE,1.69,0.78267,0.90733,1
2435470,20171230|254|1|1|2346530,3/25/18,7917.526,14921,POP DEP SINGLE,187,Pk Bev-pop Deposit (411),244,Pop Deposits (588),7,103,254 Rembrandt,107 E Main St,Rembrandt,50576,42.8258,-95.1655,ACTIVE,0.05,0,0.05,NA
1219299,20181103|471|2|2|2726045,1/27/19,NA,2890,PALLM RED 100 BX,162,Cig-discount (332),8,Cigarettes,158,228,471 Columbia,511 E Walnut St,Columbia,65201,38.9532,-92.3313,ACTIVE,4.15,0.85879,3.29121,1
2881548,20170108|493|1|1|3488322,4/3/17,7918.566,5628,LARGE FTN,152,Cold Bev-retail (311),233,Cold Dispensed Beverage,11,252,493 Brewton,2041 Douglas Avenue,Brewton,36426,40.025,-94.9733,ACTIVE,1.49,0.975206,0.514794,1
441765,20190613|906|1|1|2397541,9/6/19,5405.896,35,PAYDAY 1.85OZ REG,267,Healthy Candy,331,Candy,230,428,906 Aurora,18555 E Smoky Hill Rd,Aurora,80015,39.6192,-104.771,ACTIVE,1.49,0.88545,0.60455,1
440133,20171031|204|1|1|1393026,1/24/18,NA,2967,NESQUIK MLK STRAW 14OZ,332,Flavored Milk,180,Milk,37,69,204 Waterloo,3314 Marnie Ave,Waterloo,50701,42.4655,-92.397,CLOSED,4.58,1.72,2.86,2
2231994,20190918|409|1|100|5742460,12/12/19,NA,18980,G87E10S,1,Fuel Premuim,78,Fuel,68,181,409 Cave Springs,115 E Midway St,Cave Springs,72718,36.2636,-94.2313,ACTIVE,20,2.5005,17.4995,8.335
1129072,20190422|409|3|1|5391487,7/16/19,3286.988,4681,LITE 24PK CAN,196,Beer-premium (42),246,Beer,186,181,409 Cave Springs,115 E Midway St,Cave Springs,72718,36.2636,-94.2313,ACTIVE,19.99,2.09,17.9,1
2501403,20161029|860|2|1|2758361,1/22/17,NA,19020,No Lead Plus,1,Fuel Premuim,78,Fuel,68,394,860 Cherokee,1780 S Grand Ave,Cherokee,73728,36.7396,-98.3596,ACTIVE,15,2.1543,12.8457,7.181
220882,20190227|320|2|2|709873,5/23/19,10357.152,7500,RED BULL YELLOW EDT 12OZ,261,Pk Bev-energy (carbonated) Fs (79),242,Energy carbonated,268,122,320 Northglenn,850 W 112Th Ave,Northglenn,80234,39.8994,-104.998,ACTIVE,7.5,1.74429,5.75571,3
2751428,20180613|320|2|2|177660,9/6/18,NA,216,MT DEW 20OZ,250,Pk Bev-csd/pop (71),243,Pop (587),448,122,320 Northglenn,850 W 112Th Ave,Northglenn,80234,39.8994,-104.998,ACTIVE,1.99,0.87195,1.11805,1
2733981,20170501|292|4|1|2207240,7/25/17,NA,18384,BEER DEP SINGLE,186,Beer-deposits (410),247,Beer Deposits (66),13,112,292 Aredale,117 E Main St,Aredale,50605,42.8351,-93.0034,ACTIVE,0.2,0,0.2,NA
249341,20180402|396|2|2|1811446,6/26/18,NA,1226,GOLDEN GRHM CHOC MAR 2.1OZ,70,Healthy Snacks,65,Health Snacks,184,165,396 Pomeroy,116 S Main St,Pomeroy,50575,42.5506,-94.6855,CLOSED,3.18,1.74666,1.43334,2
543386,20180704|838|1|1|3279051,9/27/18,NA,17654,OK 25X CASH 496,138,Gaming-lottery (scratch Tickt) (272),175,Lottery (360),1575,380,838 Oxford,92 Plaza Lane,Oxford,36203,35.9938,-94.5681,ACTIVE,20,1.2,18.8,2
898655,20170612|302|1|2|4366856,9/5/17,NA,18908,BEER DEP 24PK,186,Beer-deposits (410),247,Beer Deposits (66),13,116,302 Parkersburg,602 Coates St,Parkersburg,50665,42.577,-92.7869,ACTIVE,1.2,0,1.2,NA
1139282,20180616|412|2|2|3221847,9/9/18,1674.004,3050,MARLB 72 MEN BLK BX,206,Cig-off Inv-premium (441),11,Off Invoice Cigs (104),199,184,412 Gateway,17260 Highway 37 N,Gateway,72733,36.4909,-93.9312,ACTIVE,6.51,0.95692,5.55308,1
124337,20190121|360|1|2|3050001,4/16/19,NA,11051,SLC PZ SSG 13IN FCS,287,Slices,277,Pizza,39,130,360 Roseland,9230 S Lincoln Ave,Roseland,68973,40.4705,-98.5592,ACTIVE,1.99,1.757,0.233,1
2770089,20180330|966|3|1|2007686,6/23/18,7472.47,10468,X-LARGE FTN,152,Cold Bev-retail (311),233,Cold Dispensed Beverage,11,470,966 Cowley,71 E Main St,Cowley,82420,44.8837,-108.468,ACTIVE,0.01,-1.235522,1.245522,1
1451336,20190805|563|3|1|4604878,10/29/19,903.422,5367,KOOLEE,158,Carbonated Drinks,234,Frozen Dispensed Beverage,10,298,563 Jackson,4206 N College Ave,Jackson,36545,40.4403,-95.3812,ACTIVE,2,0.203234,1.796766,2
8303,20180914|446|2|1|2171563,12/8/18,7140.958,7491,BANG CHAMPAGNE,261,Pk Bev-energy (carbonated) Fs (79),242,Energy carbonated,268,207,446 Bessemer,750 Academy Drive,Bessemer,35022,40.1928,-92.5812,ACTIVE,1.66,0.355,1.305,1
2734901,20190525|208|3|1|2854085,8/18/19,NA,18384,BEER DEP SINGLE,186,Beer-deposits (410),247,Beer Deposits (66),13,72,208 Dewar,5916 1St St,Dewar,50623,42.5253,-92.22,ACTIVE,0.1,0,0.1,NA
2902493,20170720|891|2|2|2237280,10/13/17,NA,5628,LARGE FTN,152,Cold Bev-retail (311),233,Cold Dispensed Beverage,11,421,891 Canton,202 W Main St,Canton,73724,36.0537,-98.5899,ACTIVE,1,0.330606,0.669394,1
608345,20190611|50|1|2|3981927,9/4/19,NA,10420,WTR PRFD 1GAL,255,Bottled Water,150,Juice/tonics,174,260,50 Andalusia,540 West Bypass,Andalusia,36420,41.2039,-94.4171,ACTIVE,2.19,1.39528,0.79472,1
89633,20180812|939|6|1|334665,11/5/18,4300.602,389,STRBCKS FRAPP WHT CHC MCHA 13.7OZ GLS,363,Coffee Drinks,36,Dairy,110,452,939 Campo,183 W 4Th St,Campo,81029,37.1055,-102.58,ACTIVE,3.19,1.43478,1.75522,1
315090,20180929|615|1|1|3125468,12/23/18,NA,6699,GATOR LMN LIM 20OZ,252,Sports Drinks,150,Juice/tonics,132,318,615 Stickney,309 Main St,Stickney,57375,43.5894,-98.4377,ACTIVE,1.79,0.94481,0.84519,1
1028188,20181004|385|2|1|4388440,12/28/18,6858.886,17891,HOSTESS BNA WLNT JMB MUFF 5.5OZ,61,Muffins & Donuts,262,Bread & Cakes,53,155,385 Bentonville,1706 S Walton Blvd,Bentonville,72712,36.3531,-94.212,ACTIVE,1.99,0.97,1.02,1
2418024,20180208|667|4|1|4746070,5/4/18,3352.19,839,SMALL COFFEE,145,Hot Disp Bev-retail (301),232,Hot Dispensed Beverage,9,336,667 Hooper,11701 State Highway 17,Hooper,81136,37.7451,-105.881,ACTIVE,1.49,0.798624,0.691376,1
1678442,20170724|891|2|2|2246464,10/17/17,NA,14704,DUAL USB CHARGER 2.1A,197,Gen Merch- phone hardware (430),182,Gm/novelty,600,421,891 Canton,202 W Main St,Canton,73724,36.0537,-98.5899,ACTIVE,5.99,2.47472,3.51528,1
374894,20170225|876|2|2|2616730,5/21/17,NA,4362,KITKAT 3OZ KS,285,Gluten Free Candy,331,Candy,62,408,876 Bokchito,118 W Main St,Bokchito,74726,34.0169,-96.1456,ACTIVE,1.99,0.96273,1.02727,1
1771123,20190809|952|2|2|4926198,11/2/19,NA,11051,SLC PZ SSG 13IN FCS,287,Slices,277,Pizza,39,458,952 Tie Siding,1741 S Us Highway 287,Tie Siding,82084,41.0813,-105.509,ACTIVE,1.99,1.758,0.232,1
1300822,20180317|514|3|3|4020968,6/10/18,7393.648,224,MT DEW CODE RD 20OZ,250,Pk Bev-csd/pop (71),243,Pop (587),448,270,514 Athens,1011 US Hwy 72 East,Athens,35611,41.0232,-94.6098,ACTIVE,1.5,0.33853,1.16147,1
926862,20190118|367|1|1|3313653,4/13/19,NA,13641,DR PEPPER 20OZ,250,Pk Bev-csd/pop (71),243,Pop (587),448,136,367 Arthur,309 Fir St,Arthur,69121,41.5711,-101.691,ACTIVE,1.62,0.88182,0.73818,1
2131973,20180607|24|1|100|4702751,8/31/18,6162.638,18980,G87E10S,1,Fuel Premuim,78,Fuel,68,97,24 Hazleton,200 Main St S,Hazleton,50641,42.6151,-91.906,ACTIVE,30.88,3.3219,27.5581,11.073
495502,20190320|466|1|1|3418042,6/13/19,NA,5291,MLKYWA FDG 3OZ KS,266,Vegan Candy,331,Candy,304,222,466 Centralia,104 W Sneed St,Centralia,65240,39.2103,-92.1384,ACTIVE,1.99,0.89367,1.09633,1
859749,20180312|250|2|2|4455544,6/5/18,NA,4900,MOTRIN IB 2 DOSE LD 4CT,112,Pain Relievers,127,Health & Beauty,43,101,250 Ayr,4075 W Lincoln St,Ayr,68925,40.4372,-98.4387,ACTIVE,2.29,1.225,1.065,1
1900595,20190805|2926|2|2|3558578,10/29/19,NA,4107,KEEBLER BNS PK CHZ&PNTBTR 1.8OZ,57,Crackers,5,Salty Snacks,56,114,2926 Commerce City,8096 Brighton Rd,Commerce City,80022,39.8437,-104.921,ACTIVE,0.99,0.64077,0.34923,1
1888516,20191001|2731|3|3|5414302,12/25/19,NA,12962,TAKIS FUGO BRCL 4OZ,53,Salty Snacks -tort/corn Chips (152),5,Salty Snacks,243,107,2731 Alta,106 S Cherokee St,Alta,51002,42.6745,-95.3054,ACTIVE,2.99,1.985,1.005,1
2108525,20181115|240|1|100|3014083,2/8/19,NA,18980,G87E10S,1,Fuel Premuim,78,Fuel,68,98,240 Marathon,114 Agora St,Marathon,50565,42.8595,-94.9825,ACTIVE,6,0.7539,5.2461,2.513
276675,20190208|319|1|1|503177,5/4/19,10233.714,11040,GRANDE SSG & QUESO BURRITO,272,Breakfast Food,271,Breakfast Sandwiches,97,120,319 Henderson,12210 Brighton Rd,Henderson,80640,39.9181,-104.867,ACTIVE,3.99,2.838,1.152,1
1010514,20190217|383|2|1|6584775,5/13/19,NA,7541,RED BULL 8.4OZ,261,Pk Bev-energy (carbonated) Fs (79),242,Energy carbonated,268,153,383 Rogers,4600 W Walnut St,Rogers,72756,36.3337,-94.1811,ACTIVE,4.25,1.4667,2.7833,2
1703143,20190213|914|4|1|4028313,5/9/19,NA,7531,RED BULL 16OZ,261,Pk Bev-energy (carbonated) Fs (79),242,Energy carbonated,268,434,914 Centennial,2221 E Arapahoe Rd,Centennial,80122,39.5957,-104.963,ACTIVE,7.5,2.3499,5.1501,2
479213,20180629|635|1|1|252416,9/22/18,NA,16062,KARKOV VDKA 80 TRVL 750ML,172,Vodka,249,Liquor,179,326,635 Wessington,170 Wessington St S,Wessington,57381,44.4532,-98.6973,ACTIVE,6.49,1.99,4.5,1
455691,20190829|1475|6|2|1341571,11/22/19,NA,480,KICKSTART BLU POM 16OZ,250,Pk Bev-csd/pop (71),243,Pop (587),448,37,1475 Montgomery,851 Ann St,Montgomery,36107,39.3071,-91.486,ACTIVE,1.99,0.79,1.2,1
1578841,20170621|846|4|1|4243638,9/14/17,NA,4298,KAYAK LC MNT UPRITE,334,Tobacco-round Can Snuff (960),321,Smokeless (951),363,386,846 Ozark,1537 Hwy 231 South,Ozark,36360,35.681,-94.7605,ACTIVE,2.09,0.861,1.229,1
2361161,20190211|670|1|100|6788403,5/7/19,NA,18998,G91E10P,1,Fuel Premuim,78,Fuel,68,339,670 Alamosa,505 3Rd St,Alamosa,81101,37.4708,-105.865,ACTIVE,22.6,2.6595,19.9405,8.865
179708,20181107|360|1|1|2960501,1/31/19,NA,11050,SLC PZ PEPPRNI 13IN FCS,287,Slices,277,Pizza,39,130,360 Roseland,9230 S Lincoln Ave,Roseland,68973,40.4705,-98.5592,ACTIVE,1,0.767,0.233,1
4630,20170729|834|3|1|2927674,10/22/17,NA,18949,SKU ICE BAG SML,143,Ice (282),141,Ice (277),7,377,834 Burlington,513 Main St,Burlington,73722,36.9003,-98.4228,ACTIVE,1.99,1.094589,0.895411,1
2259869,20181218|493|1|100|4863702,3/13/19,NA,18980,G87E10S,1,Fuel Premuim,78,Fuel,68,252,493 Brewton,2041 Douglas Avenue,Brewton,36426,40.025,-94.9733,ACTIVE,18.59,2.9367,15.6533,9.789
1632399,20180331|881|2|2|6380818,6/24/18,7613.446,7509,RED BULL BLU EDT 12OZ,261,Pk Bev-energy (carbonated) Fs (79),242,Energy carbonated,268,413,881 Erick,119 W 3Rd St,Erick,73645,35.2141,-99.8677,ACTIVE,5,1.15468,3.84532,2
478993,20180430|187|2|2|2358688,7/24/18,NA,1842,DONUT RAISED FCS,270,Bakery Food,269,Bakery,112,57,187 Tallassee,1300 Gilmer Ave,Tallassee,36078,46.6472,-93.1276,ACTIVE,0.99,0.555,0.435,1
1986744,20170221|480|3|2|2804761,5/17/17,NA,5388,MEDIUM COFFEE,145,Hot Disp Bev-retail (301),232,Hot Dispensed Beverage,9,237,480 Ionia,206 N Main St,Ionia,65335,38.5027,-93.3235,ACTIVE,1.59,0.8613,0.7287,1
2029978,20170723|938|1|100|1995844,10/16/17,NA,18973,G85E10S,1,Fuel Premuim,78,Fuel,68,451,938 Pritchett,153 Randolph St,Pritchett,81064,37.368,-102.86,ACTIVE,23.12,2.9028,20.2172,9.676
1961897,20170114|863|1|1|4096542,4/9/17,6113.62,18953,PrepayFuel,1,Fuel Premuim,78,Fuel,68,397,863 Atoka,409 E Court St,Atoka,74525,34.3854,-96.124,ACTIVE,0,NA,NA,NA
312416,20190702|876|2|2|3916856,9/25/19,4655.102,10412,WTR SPRTCAP 20OZ,255,Bottled Water,150,Juice/tonics,174,408,876 Bokchito,118 W Main St,Bokchito,74726,34.0169,-96.1456,ACTIVE,1.98,1.61374,0.36626,2
2549345,20161024|891|1|100|1677414,1/17/17,NA,19020,No Lead Plus,1,Fuel Premuim,78,Fuel,68,421,891 Canton,202 W Main St,Canton,73724,36.0537,-98.5899,ACTIVE,18.14,2.7219,15.4181,9.073
2501457,20170328|26|1|100|2406982,6/21/17,NA,19020,No Lead Plus,1,Fuel Premuim,78,Fuel,68,104,26 Aitkin,15 Minnesota Ave N,Aitkin,56431,46.5321,-93.707,ACTIVE,30,4.0557,25.9443,13.519
1670356,20190722|890|3|1|3254870,10/15/19,NA,10770,CHOC RSNS 6OZ,266,Vegan Candy,331,Candy,304,420,890 Hitchcock,107 W Main St,Hitchcock,73744,35.9682,-98.3491,ACTIVE,2.29,1.335,0.955,1
1288690,20170720|498|1|2|4375724,10/13/17,NA,2070,WRIGLEY EXT POLAR IC 35PC,263,Gum,119,Gum,128,258,498 Calera,5100 Hwy 31,Calera,35040,40.0616,-94.7649,ACTIVE,2.99,1.445,1.545,1
1446772,20181011|563|3|1|3914140,1/4/19,NA,14934,STANDARD TIRE GAUGE LD,126,Auto-car Care (244),174,Automotive (35),970,298,563 Jackson,4206 N College Ave,Jackson,36545,40.4403,-95.3812,ACTIVE,4.58,2.44,2.14,2
1392155,20161216|560|1|1|3604384,3/11/17,NA,9009,MO $5 MILL BIG MONEY 111,138,Gaming-lottery (scratch Tickt) (272),175,Lottery (360),1575,295,560 Columbia,3709 Sandman Ln,Columbia,65201,38.9096,-92.3341,ACTIVE,20,1,19,1
2139002,20181219|32|1|1|3180624,3/14/19,NA,18980,G87E10S,1,Fuel Premuim,78,Fuel,68,121,32 Shell Rock,203 S Walnut St,Shell Rock,50670,42.7116,-92.5839,ACTIVE,10,1.4226,8.5774,4.742
2021084,20190810|319|1|100|863759,11/3/19,NA,18973,G85E10S,1,Fuel Premuim,78,Fuel,68,120,319 Henderson,12210 Brighton Rd,Henderson,80640,39.9181,-104.867,ACTIVE,27.15,3.0069,24.1431,10.023
1901416,20170102|4923|1|2|3118870,3/28/17,NA,3753,DORITO SPCY NCHO 3.125OZ,53,Salty Snacks -tort/corn Chips (152),5,Salty Snacks,243,250,4923 Commerce City,7351 Magnolia St,Commerce City,80022,39.8303,-104.911,ACTIVE,1.49,0.45,1.04,1
2512843,20170302|51|1|100|2963903,5/26/17,NA,19020,No Lead Plus,1,Fuel Premuim,78,Fuel,68,267,51 Griswold,608 4Th St,Griswold,51535,41.2335,-95.1403,ACTIVE,44,5.595,38.405,18.65
1835463,20190830|1097|5|2|2048248,11/23/19,NA,3064,MARLB 72 GLD BX,206,Cig-off Inv-premium (441),11,Off Invoice Cigs (104),199,5,1097 Enterprise,600 Boll Weevil Circle,Enterprise,36330,40.648,-92.8406,ACTIVE,12.76,1.64924,11.11076,2
781358,20180825|200|3|1|4935385,11/18/18,5983.644,10809,SEC PRTZL BUN FCS,272,Breakfast Food,271,Breakfast Sandwiches,97,64,200 Cedar Falls,221 W 6Th St,Cedar Falls,50613,42.5336,-92.4478,ACTIVE,4.5,3.45,1.05,2
2325468,20171221|1097|1|100|767961,3/16/18,NA,18980,G87E10S,1,Fuel Premuim,78,Fuel,68,5,1097 Enterprise,600 Boll Weevil Circle,Enterprise,36330,40.648,-92.8406,ACTIVE,61.32,7.8654,53.4546,26.218
590431,20190823|29|2|2|5546780,11/16/19,NA,11054,SLC PZ BRKFST 13IN FCS,287,Slices,277,Pizza,39,111,29 Washburn,303 Main St,Washburn,65772,36.5885,-93.9646,ACTIVE,2.39,2.145,0.245,1
417835,20180820|873|2|1|2707344,11/13/18,NA,17657,OK BREAK THE BANK 499,138,Gaming-lottery (scratch Tickt) (272),175,Lottery (360),1575,405,873 Turpin,419 S Main St,Turpin,73950,36.8634,-100.878,ACTIVE,10,0.6,9.4,2
2791806,20170208|887|2|2|4025554,5/4/17,NA,10468,X-LARGE FTN,152,Cold Bev-retail (311),233,Cold Dispensed Beverage,11,418,887 Greenfield,100 Madison St,Greenfield,73043,35.7276,-98.3789,ACTIVE,1.59,1.59,0,1
276955,20180331|986|2|1|2209358,6/24/18,3444.21,3689,FUNYUN REG 2.375OZ,53,Salty Snacks -tort/corn Chips (152),5,Salty Snacks,243,482,986 Apache,302 E Evans Ave,Apache,73006,34.8936,-98.363,ACTIVE,1.69,0.51053,1.17947,1
636110,20180916|80|3|3|2884752,12/10/18,NA,3956,DORITO CL RNCH 9.75OZ,53,Salty Snacks -tort/corn Chips (152),5,Salty Snacks,243,365,80 Swaledale,202 5Th St S,Swaledale,50477,42.9779,-93.3154,ACTIVE,4.29,1.61,2.68,1
2605414,20180315|370|2|2|4388390,6/7/18,NA,2179,HOT DOG FCS,280,Roller Grill Food,279,Roller Grill,9,140,370 Dunning,403 Jewett Ave,Dunning,68833,41.8281,-100.105,ACTIVE,1.69,1.04,0.65,1
539242,20181026|320|2|2|470118,1/19/19,NA,5033,PRING GRB&GO PIZZA 2.5OZ,52,Potato Chips,2,Chips,251,122,320 Northglenn,850 W 112Th Ave,Northglenn,80234,39.8994,-104.998,ACTIVE,1.79,1.055,0.735,1
1561539,20170506|670|2|2|4813933,7/30/17,NA,12280,COPENHGN LC MNT,334,Tobacco-round Can Snuff (960),321,Smokeless (951),363,339,670 Alamosa,505 3Rd St,Alamosa,81101,37.4708,-105.865,ACTIVE,4.6,1.30647,3.29353,1
502948,20180406|906|2|2|1806674,6/30/18,5685.34,5271,M&M CRNCHY MNT KS,266,Vegan Candy,331,Candy,304,428,906 Aurora,18555 E Smoky Hill Rd,Aurora,80015,39.6192,-104.771,ACTIVE,1.99,1.99,0,1
1489343,20190729|578|3|1|5236971,10/22/19,NA,2070,WRIGLEY EXT POLAR IC 35PC,263,Gum,119,Gum,128,310,578 Millbrook,145 Kelley Blvd,Millbrook,36054,39.2417,-91.6434,ACTIVE,3.19,1.53471,1.65529,1
1226183,20170718|471|1|2|2021691,10/11/17,NA,844,BANANA,282,Salads,281,Salad/produce & Misc,83,228,471 Columbia,511 E Walnut St,Columbia,65201,38.9532,-92.3313,ACTIVE,0.99,0.99,0,1
1685464,20190409|905|2|1|255849,7/3/19,5462.356,12959,TAKIS FUGO BRCL 9.9OZ,53,Salty Snacks -tort/corn Chips (152),5,Salty Snacks,243,427,905 Mobile,685 Schillinger Rd,Mobile,36695,39.8319,-105.004,ACTIVE,4.09,2.49867,1.59133,1
514681,20171020|928|1|2|1845592,1/13/18,3152.354,12297,COPENHGN LC,334,Tobacco-round Can Snuff (960),321,Smokeless (951),363,443,928 Aurora,738 Peoria St Ste D,Aurora,80011,39.7276,-104.847,ACTIVE,12.2,2.53494,9.66506,2
2702300,20180304|846|2|2|4786341,5/28/18,7473.244,5538,MEDIUM FTN,152,Cold Bev-retail (311),233,Cold Dispensed Beverage,11,386,846 Ozark,1537 Hwy 231 South,Ozark,36360,35.681,-94.7605,ACTIVE,6.45,4.164766,2.285234,5
1575180,20190808|846|1|1|5968703,11/1/19,621.902,10277,COOKIE FCS,270,Bakery Food,269,Bakery,112,386,846 Ozark,1537 Hwy 231 South,Ozark,36360,35.681,-94.7605,ACTIVE,0.79,0.49,0.3,1
1912138,20181224|4923|1|2|5068113,3/19/19,1832.044,11040,GRANDE SSG & QUESO BURRITO,272,Breakfast Food,271,Breakfast Sandwiches,97,250,4923 Commerce City,7351 Magnolia St,Commerce City,80022,39.8303,-104.911,ACTIVE,3.99,2.833,1.157,1
705913,20170119|152|3|1|4361103,4/14/17,5828.504,2162,SLC PZ SSG 13IN FCS,287,Slices,277,Pizza,39,42,152 Wilmot,202 Mccombs St,Wilmot,71676,33.0593,-91.5728,ACTIVE,1.99,1.564,0.426,1
2271828,20180617|520|1|100|4930514,9/10/18,NA,18980,G87E10S,1,Fuel Premuim,78,Fuel,68,274,520 Atlantic,1630 E 7Th St,Atlantic,50022,41.4048,-94.9895,ACTIVE,27.52,3.2394,24.2806,10.798
1085567,20180301|397|2|2|4388497,5/25/18,NA,15242,AR BANK ON IT 414,138,Gaming-lottery (scratch Tickt) (272),175,Lottery (360),1575,166,397 Pea Ridge,468 N Curtis Ave,Pea Ridge,72751,36.4456,-94.1154,ACTIVE,5,0.25,4.75,1
1011244,20170214|383|2|1|4653432,5/10/17,NA,1419,BUD 6PK 16OZ CAN,196,Beer-premium (42),246,Beer,186,153,383 Rogers,4600 W Walnut St,Rogers,72756,36.3337,-94.1811,ACTIVE,7.99,2.26498,5.72502,1
1103235,20180709|401|6|2|5031776,10/2/18,5263.216,3786,CHEETO FLMN HT JMBO PUFF 3.6OZ,53,Salty Snacks -tort/corn Chips (152),5,Salty Snacks,243,172,401 Rogers,401 N 8Th St,Rogers,72756,36.3364,-94.1246,ACTIVE,1.5,0.32,1.18,1
2220773,20190821|397|3|1|5590803,11/14/19,NA,18980,G87E10S,1,Fuel Premuim,78,Fuel,68,166,397 Pea Ridge,468 N Curtis Ave,Pea Ridge,72751,36.4456,-94.1154,ACTIVE,5,0.7047,4.2953,2.349
109216,20170624|860|2|1|3221481,9/17/17,NA,6275,COKE 12PK,250,Pk Bev-csd/pop (71),243,Pop (587),448,394,860 Cherokee,1780 S Grand Ave,Cherokee,73728,36.7396,-98.3596,ACTIVE,4,-0.55496,4.55496,1
2051160,20190612|933|2|2|3568642,9/5/19,NA,18973,G85E10S,1,Fuel Premuim,78,Fuel,68,447,933 Las Animas,513 6Th St,Las Animas,81054,38.0661,-103.223,ACTIVE,12,1.3095,10.6905,4.365
2585195,20180511|561|1|1|7489473,8/4/18,NA,6507,LOTTO,137,Lotto (271),136,Lotto (271),2,296,561 Gardendale,890 Odum Road,Gardendale,35071,39.8873,-94.8933,ACTIVE,4.5,4.5,0,1
309981,20171003|570|2|2|69434,12/27/17,NA,2721,NEWPO 100 BX,161,Cig-premium (331),8,Cigarettes,435,304,570 Hueytown,1007 Red Farmer Drive,Hueytown,35023,41.9966,-91.8623,ACTIVE,8.05,2.07682,5.97318,1
1598258,20161017|863|2|2|3736088,1/10/17,NA,2168,SLC PZ BRKFST 13IN FCS,287,Slices,277,Pizza,39,397,863 Atoka,409 E Court St,Atoka,74525,34.3854,-96.124,ACTIVE,2.39,1.805,0.585,1
2723321,20180405|362|1|2|5072396,6/29/18,NA,3002,MARLB GLD BX,206,Cig-off Inv-premium (441),11,Off Invoice Cigs (104),199,132,362 Norfork,13862 Highway 5 S,Norfork,72658,36.2088,-92.2863,ACTIVE,6.51,0.65064,5.85936,1
1240215,20180526|476|1|2|4533945,8/18/18,NA,2885,PALLM RED 85 BX,162,Cig-discount (332),8,Cigarettes,158,233,476 Birmingham,9248 Parkway East,Birmingham,35206,40.1128,-94.8225,ACTIVE,4.03,-0.03677,4.06677,1
1657893,20180619|887|3|1|5109348,9/12/18,NA,18262,JARRITO PNAPL 16.9OZ,250,Pk Bev-csd/pop (71),243,Pop (587),448,418,887 Greenfield,100 Madison St,Greenfield,73043,35.7276,-98.3789,ACTIVE,1.29,0.485,0.805,1
380404,20180112|487|2|2|2370523,4/7/18,2218.766,9082,MO $100 IN A FLASH 185,138,Gaming-lottery (scratch Tickt) (272),175,Lottery (360),1575,244,487 Glenallen,1 Short St,Glenallen,63751,37.3172,-90.0274,ACTIVE,10,0.5,9.5,5
1444895,20190220|563|4|1|4187151,5/16/19,2261.108,4220,WHITEO FLFR BLU PCH 2/99,335,Tobacco-cigarillo (962),320,Cigars,342,298,563 Jackson,4206 N College Ave,Jackson,36545,40.4403,-95.3812,ACTIVE,0.99,0.35127,0.63873,1
1472883,20171021|571|3|1|3191090,1/14/18,5336.318,10439,REG 2OZ,52,Potato Chips,2,Chips,251,305,571 Leeds,8551 Whitfield Ave,Leeds,35094,40.3385,-95.393,ACTIVE,1.19,0.72333,0.46667,1
2381359,20170513|412|1|1|2547887,8/6/17,NA,18234,LOTTERY WIN,135,Lottery-win (270),307,Store Services (92),1,184,412 Gateway,17260 Highway 37 N,Gateway,72733,36.4909,-93.9312,ACTIVE,-2,0,0,2
2268687,20171013|518|1|100|4045307,1/6/18,NA,18980,G87E10S,1,Fuel Premuim,78,Fuel,68,272,518 Massena,99 Main St,Massena,50853,41.2517,-94.7692,ACTIVE,50.85,6.5784,44.2716,21.928
101677,20180519|316|3|1|2046202,8/12/18,NA,3003,MARLB 72 SLVR BX,206,Cig-off Inv-premium (441),11,Off Invoice Cigs (104),199,119,316 Mobile,5245 Rangeline Service Rd,Mobile,36619,39.9883,-104.818,ACTIVE,6.49,1.83,4.66,1
957290,20190117|370|5|3|5223909,4/12/19,2265.62,11040,GRANDE SSG & QUESO BURRITO,272,Breakfast Food,271,Breakfast Sandwiches,97,140,370 Dunning,403 Jewett Ave,Dunning,68833,41.8281,-100.105,ACTIVE,7,4.696,2.304,2
781176,20190807|200|3|1|5653880,10/31/19,NA,217,DT MT DEW 20OZ,250,Pk Bev-csd/pop (71),243,Pop (587),448,64,200 Cedar Falls,221 W 6Th St,Cedar Falls,50613,42.5336,-92.4478,ACTIVE,3.33,0.95106,2.37894,2
2350996,20180622|446|1|100|2095575,9/15/18,NA,18998,G91E10P,1,Fuel Premuim,78,Fuel,68,207,446 Bessemer,750 Academy Drive,Bessemer,35022,40.1928,-92.5812,ACTIVE,11.5,1.1655,10.3345,3.885
2813792,20170429|442|1|2|3164136,7/23/17,3517.004,5365,LARGE COFFEE,145,Hot Disp Bev-retail (301),232,Hot Dispensed Beverage,9,205,442 Mindenmines,604 Main St,Mindenmines,64769,37.4744,-94.5887,ACTIVE,1.69,0.917944,0.772056,1
2603292,20161018|227|2|2|3412464,1/11/17,NA,2179,HOT DOG FCS,280,Roller Grill Food,279,Roller Grill,9,90,227 Winthrop,253 W Madison St,Winthrop,50682,42.4732,-91.7338,ACTIVE,1.59,0.48703,1.10297,1
825718,20181115|228|2|1|5406505,2/8/19,NA,5329,DSM REGISTER,114,Nwspapers,183,Newspapers,296,91,228 Brandon,704 Main St,Brandon,52210,42.3147,-92.0057,ACTIVE,2,0.34655,1.65345,1
507288,20181125|867|1|2|3238048,2/18/19,NA,5367,KOOLEE,158,Carbonated Drinks,234,Frozen Dispensed Beverage,10,401,867 Caney,200 W Main St,Caney,74533,34.2321,-96.2133,ACTIVE,1.59,0.939597,0.650403,1
517129,20170901|991|28602664|1|2061272,11/25/17,NA,5149,SNICKER 3.29OZ KS,266,Vegan Candy,331,Candy,304,485,991 Binger,224 W Main St,Binger,73009,35.3086,-98.3442,CLOSED,1.39,1.07284,0.31716,1
1256017,20161118|493|2|2|3344753,2/11/17,NA,218,AQUAFINA 1LT,255,Bottled Water,150,Juice/tonics,174,252,493 Brewton,2041 Douglas Avenue,Brewton,36426,40.025,-94.9733,ACTIVE,1.89,0.94154,0.94846,1
2621282,20161115|28|2|1|1973314,2/8/17,NA,2180,TORNADO FCS,280,Roller Grill Food,279,Roller Grill,9,108,28 Sioux Rapids,114 Thomas St,Sioux Rapids,50585,42.8925,-95.1503,ACTIVE,2.59,1.578,1.012,2
2049735,20180518|930|4|2|3790766,8/11/18,NA,18973,G85E10S,1,Fuel Premuim,78,Fuel,68,445,930 Aurora,2500 S Abilene St,Aurora,80014,39.6704,-104.828,ACTIVE,20,2.106,17.894,7.02
951931,20180406|369|1|2|3109144,6/30/18,NA,4331,MARLB RED DISCOUNT,209,Cig-Off Inv-Prem Disc Items (447),11,Off Invoice Cigs (104),31,138,369 Purdum,84451 Purdum Ave,Purdum,69157,42.0644,-100.259,ACTIVE,-0.2,0,0,NA
1855381,20170928|1837|6|2|868628,12/22/17,NA,12323,COPENHGN POCH,334,Tobacco-round Can Snuff (960),321,Smokeless (951),363,55,1837 Winfield,2575 Us Hwy 43,Winfield,35594,36.5326,-98.1534,ACTIVE,6.99,1.79423,5.19577,1
551402,20190530|939|2|2|973677,8/23/19,7238.824,11998,COORS LT 24PK CAN,196,Beer-premium (42),246,Beer,186,452,939 Campo,183 W 4Th St,Campo,81029,37.1055,-102.58,ACTIVE,18.49,1.69,16.8,1
1481256,20161008|578|2|2|2987836,1/1/17,NA,3822,NUT HAR ALMONDS 2.25OZ,55,Nuts & seeds,185,Nuts,318,310,578 Millbrook,145 Kelley Blvd,Millbrook,36054,39.2417,-91.6434,ACTIVE,1.99,0.7,1.29,1
1445745,20170304|563|4|2|2721955,5/28/17,NA,2332,LD ZBRA CKE BG SNK 3.1OZ,60,Cakes & pastrie,262,Bread & Cakes,217,298,563 Jackson,4206 N College Ave,Jackson,36545,40.4403,-95.3812,ACTIVE,0.75,0.27,0.48,1
768230,20170709|200|2|3|4060284,10/2/17,NA,16333,NEW AMSTERDAM PCH VDKA 750ML,172,Vodka,249,Liquor,179,64,200 Cedar Falls,221 W 6Th St,Cedar Falls,50613,42.5336,-92.4478,ACTIVE,14.99,3.80227,11.18773,1
1786977,20190226|973|2|1|5203478,5/22/19,NA,419,BRISK STRWBRY MLN TEA 1LT,253,Juice Drinks,150,Juice/tonics,106,476,973 Lafayette,603 S Public Rd,Lafayette,80026,39.9932,-105.091,ACTIVE,1.49,0.78357,0.70643,1
1562401,20190710|670|1|1|7267991,10/3/19,5510.74,3139,MARLB SPCL BLND MEN BLK 100 BX S50,206,Cig-off Inv-premium (441),11,Off Invoice Cigs (104),199,339,670 Alamosa,505 3Rd St,Alamosa,81101,37.4708,-105.865,ACTIVE,5.65,0.386,5.264,1
2112587,20180420|338|1|100|1730413,7/14/18,6955.354,18980,G87E10S,1,Fuel Premuim,78,Fuel,68,124,338 Hastings,300 N Kansas Ave,Hastings,68901,40.5864,-98.3858,CLOSED,20,2.3082,17.6918,7.694
852733,20181116|237|3|2|3654293,2/9/19,NA,10866,BISCUIT SSG EGG CHZ FCS,272,Breakfast Food,271,Breakfast Sandwiches,97,95,237 Rowley,111 Ely St,Rowley,52329,42.3701,-91.8436,ACTIVE,2.69,1.852,0.838,1
1680717,20170703|891|2|1|2200103,9/26/17,NA,17,HEATH 1.4OZ REG,266,Vegan Candy,331,Candy,304,421,891 Canton,202 W Main St,Canton,73724,36.0537,-98.5899,ACTIVE,1.25,0.61773,0.63227,1
912857,20170307|362|5|2|4129645,5/31/17,NA,903,BLOWPOP .65OZ,267,Healthy Candy,331,Candy,230,132,362 Norfork,13862 Highway 5 S,Norfork,72658,36.2088,-92.2863,ACTIVE,0.15,0.0489,0.1011,1
1744610,20171029|930|2|2|3480543,1/22/18,NA,7502,RED BULL 20OZ,261,Pk Bev-energy (carbonated) Fs (79),242,Energy carbonated,268,445,930 Aurora,2500 S Abilene St,Aurora,80014,39.6704,-104.828,ACTIVE,4.79,1.72211,3.06789,1
443256,20170711|953|1|2|1714357,10/4/17,NA,6777,SKU ICE BAG LRG,143,Ice (282),141,Ice (277),7,459,953 Laramie,152 N 5Th St,Laramie,82072,41.3132,-105.591,ACTIVE,5.49,3.019695,2.470305,1
1372361,20171030|551|1|2|3306601,1/23/18,NA,3005,MARLB SPCL SLCT GLD BX,206,Cig-off Inv-premium (441),11,Off Invoice Cigs (104),199,287,551 Ashland,131 E Broadway,Ashland,65010,38.7749,-92.2606,ACTIVE,4.53,0.0752,4.4548,1
2264232,20190119|498|1|1|5605393,4/14/19,NA,18980,G87E10S,1,Fuel Premuim,78,Fuel,68,258,498 Calera,5100 Hwy 31,Calera,35040,40.0616,-94.7649,ACTIVE,30,4.9479,25.0521,16.493
1714420,20170224|921|1|2|2338471,5/20/17,2069.468,5253,SNICKER HZLNT LE REG,266,Vegan Candy,331,Candy,304,440,921 Greenwood Vlg,8525 E Arapahoe Rd,Greenwood Vlg,80112,39.5964,-104.891,ACTIVE,0.01,-0.63024,0.64024,1
2610169,20181212|514|1|2|4548439,3/7/19,1627.466,2179,HOT DOG FCS,280,Roller Grill Food,279,Roller Grill,9,270,514 Athens,1011 US Hwy 72 East,Athens,35611,41.0232,-94.6098,ACTIVE,1.69,1.025,0.665,1
1807052,20180819|979|2|2|1200140,11/12/18,NA,7539,RED BULL 12OZ 4PK,261,Pk Bev-energy (carbonated) Fs (79),242,Energy carbonated,268,479,979 Gillette,2005 S Douglas Hwy,Gillette,82718,44.2762,-105.493,ACTIVE,3.29,1.36713,1.92287,1
1496861,20180421|631|3|1|3489251,7/15/18,3871.208,6307,POWERADE BRY BLST 32OZ,252,Sports Drinks,150,Juice/tonics,132,324,631 Hitchcock,386 Clarke St,Hitchcock,57348,44.6302,-98.4081,ACTIVE,1.66,0.6475,1.0125,1
2074003,20180518|986|1|100|2248671,8/11/18,NA,18980,G87E10S,1,Fuel Premuim,78,Fuel,68,482,986 Apache,302 E Evans Ave,Apache,73006,34.8936,-98.363,ACTIVE,27,3.1047,23.8953,10.349
363284,20190410|292|2|2|3125517,7/4/19,4057.888,3561,SUNCHI SALSA 7OZ,53,Salty Snacks -tort/corn Chips (152),5,Salty Snacks,243,112,292 Aredale,117 E Main St,Aredale,50605,42.8351,-93.0034,ACTIVE,3.29,0.87,2.42,1
1996847,20190120|1475|1|100|824084,4/15/19,NA,18963,DIESELBIO,1,Fuel Premuim,78,Fuel,68,37,1475 Montgomery,851 Ann St,Montgomery,36107,39.3071,-91.486,ACTIVE,17.31,2.0778,15.2322,6.926
120766,20170502|953|1|2|1638393,7/26/17,NA,4189,WHITEO WHTGRP POCH 2/149,335,Tobacco-cigarillo (962),320,Cigars,342,459,953 Laramie,152 N 5Th St,Laramie,82072,41.3132,-105.591,ACTIVE,1.49,0.865,0.625,1
1131239,20171110|409|2|2|4238858,2/3/18,NA,3012,MARLB SLVR BX,206,Cig-off Inv-premium (441),11,Off Invoice Cigs (104),199,181,409 Cave Springs,115 E Midway St,Cave Springs,72718,36.2636,-94.2313,ACTIVE,7.3,1.39544,5.90456,1
185662,20171011|961|2|1|2265672,1/4/18,NA,12273,TAMPAX REG 10CT,95,Feminine Hygiene,127,Health & Beauty,5,467,961 Burlington,211 S Main St,Burlington,82411,44.4447,-108.431,ACTIVE,4.19,2.5075,1.6825,1
842910,20161110|229|3|1|3586532,2/3/17,NA,3782,CHEETO FLMN HT CRNCHY 3.5OZ,53,Salty Snacks -tort/corn Chips (152),5,Salty Snacks,243,92,229 Independence,200 2Nd Ave Ne,Independence,50644,42.47,-91.893,ACTIVE,1.49,0.45,1.04,1
950244,20161125|369|2|2|2353841,2/18/17,NA,9712,BLACK&M JAZZ PLTP 25CT,335,Tobacco-cigarillo (962),320,Cigars,342,138,369 Purdum,84451 Purdum Ave,Purdum,69157,42.0644,-100.259,ACTIVE,1.29,0.59833,0.69167,1
1616876,20190506|878|2|2|4685493,7/29/19,NA,3471,MUNCHI HNY RSTD PNUT  1.375OZ,55,Nuts & seeds,185,Nuts,318,410,878 Forgan,115 S Broadway St,Forgan,73938,36.9063,-100.535,ACTIVE,0.59,0.24,0.35,1
1119583,20191007|406|3|3|6510815,12/31/19,NA,2999,MARLB MEN BLU BX,206,Cig-off Inv-premium (441),11,Off Invoice Cigs (104),199,178,406 Harrison,215 W Industrial Park Rd,Harrison,72601,36.2509,-93.1298,ACTIVE,7.76,1.46357,6.29643,1
1454050,20171016|563|2|2|3216260,1/9/18,NA,10412,WTR SPRTCAP 20OZ,255,Bottled Water,150,Juice/tonics,174,298,563 Jackson,4206 N College Ave,Jackson,36545,40.4403,-95.3812,ACTIVE,0.99,0.80991,0.18009,1
1609442,20171107|878|2|2|3867397,1/31/18,NA,271,DT LIPTON GRN TEA CIT 20OZ,251,Iced Tea,150,Juice/tonics,166,410,878 Forgan,115 S Broadway St,Forgan,73938,36.9063,-100.535,ACTIVE,2.98,1.30666,1.67334,2
1540870,20161023|667|2|2|3481725,1/16/17,NA,3157,MARLB MEN GLD BX S1 SPNSH,206,Cig-off Inv-premium (441),11,Off Invoice Cigs (104),199,336,667 Hooper,11701 State Highway 17,Hooper,81136,37.7451,-105.881,ACTIVE,5.17,1.145,4.025,1
2568235,20180924|876|1|2|3508588,12/18/18,NA,6507,LOTTO,137,Lotto (271),136,Lotto (271),2,408,876 Bokchito,118 W Main St,Bokchito,74726,34.0169,-96.1456,ACTIVE,5,5,0,1
1784239,20190914|973|7|3|5687041,12/8/19,NA,13648,DT DR PEPPER 20OZ,250,Pk Bev-csd/pop (71),243,Pop (587),448,476,973 Lafayette,603 S Public Rd,Lafayette,80026,39.9932,-105.091,ACTIVE,1.99,0.80848,1.18152,1
1343419,20161012|521|2|1|839811,1/5/17,6345.176,4190,WHITEO FLFR SWT 2/149,335,Tobacco-cigarillo (962),320,Cigars,342,275,521 Attalla,973 Gilbert Ferry Road Se,Attalla,35954,40.9892,-94.7355,ACTIVE,1.49,0.68154,0.80846,1
1055738,20170319|391|3|3|5142815,6/12/17,NA,10912,3 JOJOS WEDGES,276,Hot Food,275,Hot Sandwiches & Chicken,207,161,391 Hamilton,1706 Military Street South,Hamilton,35570,34.4062,-91.4074,ACTIVE,2.72,1.65,1.07,2
1479184,20190812|578|3|1|5270351,11/5/19,NA,6274,FANTA PNAPL 20OZ,250,Pk Bev-csd/pop (71),243,Pop (587),448,310,578 Millbrook,145 Kelley Blvd,Millbrook,36054,39.2417,-91.6434,ACTIVE,1.25,0.39154,0.85846,1
479545,20170526|938|2|1|1907596,8/19/17,NA,2054,WRIGLEY 5 ASCENT 15PC,263,Gum,119,Gum,128,451,938 Pritchett,153 Randolph St,Pritchett,81064,37.368,-102.86,ACTIVE,1.5,0.5975,0.9025,1
858844,20170529|250|3|1|3816717,8/22/17,NA,7378,NE QUICK 7S 922,138,Gaming-lottery (scratch Tickt) (272),175,Lottery (360),1575,101,250 Ayr,4075 W Lincoln St,Ayr,68925,40.4372,-98.4387,ACTIVE,1,0.06,0.94,1
1542843,20170728|667|1|2|4270574,10/21/17,NA,10864,CRSNT SSG EGG CHZ FCS,272,Breakfast Food,271,Breakfast Sandwiches,97,336,667 Hooper,11701 State Highway 17,Hooper,81136,37.7451,-105.881,ACTIVE,2.26,1.326,0.934,1
754859,20170616|171|2|2|3010182,9/9/17,6281.808,5254,SNICKER HZLNT KS,266,Vegan Candy,331,Candy,304,53,171 Scottsboro,24833 Johnt Reidprkw,Scottsboro,35768,36.2661,-92.5383,ACTIVE,1.99,1.62818,0.36182,1
2772623,20180704|1475|2|2|369895,9/27/18,NA,10468,X-LARGE FTN,152,Cold Bev-retail (311),233,Cold Dispensed Beverage,11,37,1475 Montgomery,851 Ann St,Montgomery,36107,39.3071,-91.486,ACTIVE,2,0.057107,1.942893,2
534567,20181102|319|1|2|356474,1/26/19,9247.966,11089,STRAWBERRY DONUT HOLES,270,Bakery Food,269,Bakery,112,120,319 Henderson,12210 Brighton Rd,Henderson,80640,39.9181,-104.867,ACTIVE,1.99,1.396,0.594,1
449038,20190603|876|2|2|3873129,8/27/19,NA,3017,MARLB SPCL SLCT RED 100 BX,206,Cig-off Inv-premium (441),11,Off Invoice Cigs (104),199,408,876 Bokchito,118 W Main St,Bokchito,74726,34.0169,-96.1456,ACTIVE,7.84,1.57429,6.26571,1
2625417,20170617|302|1|1|4378684,9/10/17,NA,2180,TORNADO FCS,280,Roller Grill Food,279,Roller Grill,9,116,302 Parkersburg,602 Coates St,Parkersburg,50665,42.577,-92.7869,ACTIVE,5.38,3.124,2.256,4
1241425,20180623|480|4|2|3757737,9/16/18,7073.442,4233,WHITEO FLFR MNGO PCH 2/99,335,Tobacco-cigarillo (962),320,Cigars,342,237,480 Ionia,206 N Main St,Ionia,65335,38.5027,-93.3235,ACTIVE,0.99,0.38632,0.60368,1
690454,20171203|146|2|2|5493633,2/26/18,1955.05,6660,GATOR FIERCE BLU CHRY 28OZ,252,Sports Drinks,150,Juice/tonics,132,33,146 Bella Vista,1750 Forest Hills Blvd,Bella Vista,72715,36.4649,-94.302,ACTIVE,2,0.99645,1.00355,1
1866955,20170114|1903|1|1|59372,4/9/17,NA,10316,MONSTER UL RD 16OZ,261,Pk Bev-energy (carbonated) Fs (79),242,Energy carbonated,268,59,1903 Selma,1501 Hwy 14 East,Selma,36703,39.8282,-105.036,ACTIVE,1.84,0.52622,1.31378,1
455462,20180703|615|1|100|2983715,9/26/18,NA,19002,GE85,1,Fuel Premuim,78,Fuel,68,318,615 Stickney,309 Main St,Stickney,57375,43.5894,-98.4377,ACTIVE,42.22,5.8941,36.3259,19.647
909880,20180706|362|1|3|5287697,9/29/18,2784.778,17106,BODY ARMOR LYTE BLUBRY POM 28OZ,252,Sports Drinks,150,Juice/tonics,132,132,362 Norfork,13862 Highway 5 S,Norfork,72658,36.2088,-92.2863,ACTIVE,1.69,0.19,1.5,1
2595697,20190817|615|4|2|3557072,11/10/19,NA,2179,HOT DOG FCS,280,Roller Grill Food,279,Roller Grill,9,318,615 Stickney,309 Main St,Stickney,57375,43.5894,-98.4377,ACTIVE,1.79,1.045,0.745,1
1941387,20161130|362|2|2|3859715,2/23/17,NA,18953,PrepayFuel,1,Fuel Premuim,78,Fuel,68,132,362 Norfork,13862 Highway 5 S,Norfork,72658,36.2088,-92.2863,ACTIVE,0,NA,NA,NA
2233419,20170704|412|1|100|2644297,9/27/17,NA,18980,G87E10S,1,Fuel Premuim,78,Fuel,68,184,412 Gateway,17260 Highway 37 N,Gateway,72733,36.4909,-93.9312,ACTIVE,9.33,1.4436,7.8864,4.812
2549792,20161125|905|2|1|2636411,2/18/17,NA,19020,No Lead Plus,1,Fuel Premuim,78,Fuel,68,427,905 Mobile,685 Schillinger Rd,Mobile,36695,39.8319,-105.004,ACTIVE,20,2.6556,17.3444,8.852
65998,20180402|966|3|1|2009708,6/26/18,NA,12979,HOT DOG RETAIL ONLY,280,Roller Grill Food,279,Roller Grill,9,470,966 Cowley,71 E Main St,Cowley,82420,44.8837,-108.468,ACTIVE,2.09,-0.255042,2.345042,2
2683563,20180124|442|1|2|3611298,4/19/18,NA,5538,MEDIUM FTN,152,Cold Bev-retail (311),233,Cold Dispensed Beverage,11,205,442 Mindenmines,604 Main St,Mindenmines,64769,37.4744,-94.5887,ACTIVE,1.29,1.29,0,1
1872404,20190811|1903|2|2|1717562,11/4/19,NA,6340,SPRITE 16OZ CAN,250,Pk Bev-csd/pop (71),243,Pop (587),448,59,1903 Selma,1501 Hwy 14 East,Selma,36703,39.8282,-105.036,ACTIVE,1.79,0.83467,0.95533,1
265053,20170716|953|1|1|1720167,10/9/17,NA,6263,COKE CHRY 20OZ,250,Pk Bev-csd/pop (71),243,Pop (587),448,459,953 Laramie,152 N 5Th St,Laramie,82072,41.3132,-105.591,ACTIVE,1.89,0.82793,1.06207,1
253178,20190903|873|2|2|3113033,11/27/19,3996.902,17099,BODY ARMOR BLKOUT BRY 28OZ,252,Sports Drinks,150,Juice/tonics,132,405,873 Turpin,419 S Main St,Turpin,73950,36.8634,-100.878,ACTIVE,2.69,1.41139,1.27861,1
1589904,20161022|863|1|2|3761239,1/15/17,5845.6,2161,SLC PZ PEPPRNI 13IN FCS,287,Slices,277,Pizza,39,397,863 Atoka,409 E Court St,Atoka,74525,34.3854,-96.124,ACTIVE,3.54,2.642,0.898,2
1542579,20170908|667|2|1|4388817,12/2/17,3830.79,10318,MONSTER UL ZRO 24OZ,261,Pk Bev-energy (carbonated) Fs (79),242,Energy carbonated,268,336,667 Hooper,11701 State Highway 17,Hooper,81136,37.7451,-105.881,ACTIVE,3.59,1.53796,2.05204,1
715838,20190419|152|3|1|6427804,7/13/19,NA,11050,SLC PZ PEPPRNI 13IN FCS,287,Slices,277,Pizza,39,42,152 Wilmot,202 Mccombs St,Wilmot,71676,33.0593,-91.5728,ACTIVE,3.98,3.514,0.466,2
768823,20180402|200|1|1|4632489,6/26/18,NA,1316,JACKLI TRYK JMBO 2OZ,66,Alt Snack-meat Snacks (171),146,Jerky (305),219,64,200 Cedar Falls,221 W 6Th St,Cedar Falls,50613,42.5336,-92.4478,ACTIVE,3.49,1.73864,1.75136,1
1849248,20170714|1837|2|1|636676,10/7/17,NA,2984,MARLB SMTH BX,206,Cig-off Inv-premium (441),11,Off Invoice Cigs (104),199,55,1837 Winfield,2575 Us Hwy 43,Winfield,35594,36.5326,-98.1534,ACTIVE,6.99,1.44531,5.54469,1
357729,20180318|915|1|1|2183888,6/11/18,4813.878,10328,MONSTER UL SUNRISE 16OZ,261,Pk Bev-energy (carbonated) Fs (79),242,Energy carbonated,268,435,915 Chromo,23470 Us Highway 84,Chromo,81128,37.0353,-106.84,CLOSED,2.69,1.37677,1.31323,1
2010760,20180814|562|1|100|4622493,11/7/18,NA,18963,DIESELBIO,1,Fuel Premuim,78,Fuel,68,297,562 Columbia,101 S Providence Rd,Columbia,65203,38.9509,-92.3362,ACTIVE,73,7.5024,65.4976,25.008
1264404,20190913|497|1|3|4006900,12/7/19,158.708,5367,KOOLEE,158,Carbonated Drinks,234,Frozen Dispensed Beverage,10,257,497 Patton,1000 State Route 51,Patton,63662,37.5003,-90.0134,ACTIVE,1.59,1.880127,-0.290127,2
2074707,20171112|860|4|1|3477019,2/5/18,NA,18980,G87E10S,1,Fuel Premuim,78,Fuel,68,394,860 Cherokee,1780 S Grand Ave,Cherokee,73728,36.7396,-98.3596,ACTIVE,10,1.272,8.728,4.24
2295466,20181210|578|3|2|4775414,3/5/19,4240.842,18980,G87E10S,1,Fuel Premuim,78,Fuel,68,310,578 Millbrook,145 Kelley Blvd,Millbrook,36054,39.2417,-91.6434,ACTIVE,10,1.5714,8.4286,5.238
171611,20181111|203|2|1|2604153,2/4/19,NA,1080,IA $50000 HOLIDAY SUPER CRSSWRD 409,138,Gaming-lottery (scratch Tickt) (272),175,Lottery (360),1575,67,203 Waterloo,1422 Flammang Dr,Waterloo,50702,42.4583,-92.3276,CLOSED,5,0.35,4.65,1
906652,20191004|362|3|2|6502594,12/28/19,7116.924,3013,MARLB SLVR 100 BX,206,Cig-off Inv-premium (441),11,Off Invoice Cigs (104),199,132,362 Norfork,13862 Highway 5 S,Norfork,72658,36.2088,-92.2863,ACTIVE,6.88,0.73429,6.14571,1
1068866,20180212|393|1|2|5456220,5/8/18,3812.304,10864,CRSNT SSG EGG CHZ FCS,272,Breakfast Food,271,Breakfast Sandwiches,97,162,393 Henderson,13091 Highway 62 E,Henderson,72544,36.3832,-92.191,ACTIVE,2.69,1.752,0.938,1
2092859,20190910|615|1|100|3590210,12/4/19,NA,18980,G87E10S,1,Fuel Premuim,78,Fuel,68,318,615 Stickney,309 Main St,Stickney,57375,43.5894,-98.4377,ACTIVE,54.64,7.1298,47.5102,23.766
499324,20180915|435|1|2|3378889,12/9/18,NA,18949,SKU ICE BAG SML,143,Ice (282),141,Ice (277),7,199,435 Golden City,519 Main St,Golden City,64748,37.3929,-94.0928,ACTIVE,2.19,1.20446,0.98554,1
1585520,20170713|846|3|1|4297553,10/6/17,NA,2649,SWISHER ORG CIGRL 5F3,335,Tobacco-cigarillo (962),320,Cigars,342,386,846 Ozark,1537 Hwy 231 South,Ozark,36360,35.681,-94.7605,ACTIVE,3.24,1.02281,2.21719,1
1834279,20190426|1097|2|1|1749405,7/20/19,9066.774,800,100OZ FTN REFILL,154,Cold Bev-refills (314),233,Cold Dispensed Beverage,8,5,1097 Enterprise,600 Boll Weevil Circle,Enterprise,36330,40.648,-92.8406,ACTIVE,1.79,1.161165,0.628835,1
821537,20181120|228|3|2|5417655,2/13/19,NA,15090,F REAL REESES PB CUP,159,Still Drinks,234,Frozen Dispensed Beverage,26,91,228 Brandon,704 Main St,Brandon,52210,42.3147,-92.0057,ACTIVE,3.19,1.885954,1.304046,1
2830561,20190206|876|2|2|3706900,5/2/19,4895.186,5628,LARGE FTN,152,Cold Bev-retail (311),233,Cold Dispensed Beverage,11,408,876 Bokchito,118 W Main St,Bokchito,74726,34.0169,-96.1456,ACTIVE,0.01,-0.781112,0.791112,1
2708421,20170401|891|2|2|2004375,6/25/17,5891.858,5538,MEDIUM FTN,152,Cold Bev-retail (311),233,Cold Dispensed Beverage,11,421,891 Canton,202 W Main St,Canton,73724,36.0537,-98.5899,ACTIVE,1.09,0.704456,0.385544,1
748004,20170412|158|1|1|5909069,7/6/17,1992.98,10379,MONSTER LO CARB 16OZ,261,Pk Bev-energy (carbonated) Fs (79),242,Energy carbonated,268,49,158 Russellville,13675 Hwy 43,Russellville,35653,33.2376,-91.5121,ACTIVE,5.5,1.56094,3.93906,3
500460,20170419|876|2|2|2698853,7/13/17,NA,4218,WHITEO FLFR PNAPL PCH 2/149,335,Tobacco-cigarillo (962),320,Cigars,342,408,876 Bokchito,118 W Main St,Bokchito,74726,34.0169,-96.1456,ACTIVE,1.49,0.75667,0.73333,1
2396312,20190730|316|4|1|2609535,10/23/19,NA,839,SMALL COFFEE,145,Hot Disp Bev-retail (301),232,Hot Dispensed Beverage,9,119,316 Mobile,5245 Rangeline Service Rd,Mobile,36619,39.9883,-104.818,ACTIVE,1.59,1.59,0,1
1844003,20181102|1097|3|2|1394937,1/26/19,NA,420,BRISK WTRMLN TEA 1LT,251,Iced Tea,150,Juice/tonics,166,5,1097 Enterprise,600 Boll Weevil Circle,Enterprise,36330,40.648,-92.8406,ACTIVE,1.49,0.79118,0.69882,1
951967,20170719|369|2|1|2726212,10/12/17,NA,5368,KOOLEE,158,Carbonated Drinks,234,Frozen Dispensed Beverage,10,138,369 Purdum,84451 Purdum Ave,Purdum,69157,42.0644,-100.259,ACTIVE,4,0.264123,3.735877,4
2075904,20171222|876|1|100|3088996,3/17/18,6055.408,18980,G87E10S,1,Fuel Premuim,78,Fuel,68,408,876 Bokchito,118 W Main St,Bokchito,74726,34.0169,-96.1456,ACTIVE,36,5.049,30.951,16.83
2290308,20170908|563|2|2|3141034,12/2/17,NA,18980,G87E10S,1,Fuel Premuim,78,Fuel,68,298,563 Jackson,4206 N College Ave,Jackson,36545,40.4403,-95.3812,ACTIVE,5,0.6252,4.3748,2.084
45401,20190714|981|3|2|3229033,10/7/19,NA,1500,MICH ULTRA 8PK 16OZ ALUM,188,Beer-super Prem/specialty (41),246,Beer,99,480,981 Fort Cobb,408 N Hazlett St,Fort Cobb,73038,35.099,-98.4358,ACTIVE,2.29,0.91491,1.37509,1
1447043,20161031|563|1|1|2401621,1/24/17,NA,10299,MONSTER REHAB ORNGADE 15.5OZ,142,Energy non-carb FS (279),215,Energy non-carb,59,298,563 Jackson,4206 N College Ave,Jackson,36545,40.4403,-95.3812,ACTIVE,2.69,1.37667,1.31333,1
952528,20170517|369|3|2|2617158,8/10/17,NA,17142,ZIPLINE IPA 6PK GLS,213,Beer-microbrews (46),246,Beer,499,138,369 Purdum,84451 Purdum Ave,Purdum,69157,42.0644,-100.259,ACTIVE,9.49,2.74,6.75,1
2646995,20180327|157|2|2|2152701,6/20/18,NA,5538,MEDIUM FTN,152,Cold Bev-retail (311),233,Cold Dispensed Beverage,11,48,157 Sylacauga,41301 US Hwy 280,Sylacauga,35150,42.507,-92.4034,ACTIVE,1.29,0.836841,0.453159,1
1682845,20180607|905|1|1|3676920,8/31/18,NA,10070,CO SPOTLIGHT GAME VII 867,138,Gaming-lottery (scratch Tickt) (272),175,Lottery (360),1575,427,905 Mobile,685 Schillinger Rd,Mobile,36695,39.8319,-105.004,ACTIVE,10,0.7,9.3,1
1754728,20190811|933|1|1|3667628,11/4/19,3327.434,6705,PROPEL FIT KIWI STRWBRY 20OZ,255,Bottled Water,150,Juice/tonics,174,447,933 Las Animas,513 6Th St,Las Animas,81054,38.0661,-103.223,ACTIVE,1.99,1.18407,0.80593,1
2615139,20180611|890|3|1|2545900,9/4/18,4099.81,2179,HOT DOG FCS,280,Roller Grill Food,279,Roller Grill,9,420,890 Hitchcock,107 W Main St,Hitchcock,73744,35.9682,-98.3491,ACTIVE,2.69,1.148,1.542,2
1444764,20190430|563|4|2|4350667,7/24/19,NA,4360,HERSHEY 2.6OZ KS,266,Vegan Candy,331,Candy,304,298,563 Jackson,4206 N College Ave,Jackson,36545,40.4403,-95.3812,ACTIVE,1.99,0.92046,1.06954,1
1586458,20161111|846|2|2|3705870,2/4/17,7072.814,1835,EMPLOYEE MUG REFILL,153,Cold Bev-employee refills (313),233,Cold Dispensed Beverage,5,386,846 Ozark,1537 Hwy 231 South,Ozark,36360,35.681,-94.7605,ACTIVE,0,0,0,NA
2357723,20170612|498|1|100|4272922,9/5/17,5449.362,18998,G91E10P,1,Fuel Premuim,78,Fuel,68,258,498 Calera,5100 Hwy 31,Calera,35040,40.0616,-94.7649,ACTIVE,16.03,1.8366,14.1934,6.122
783508,20180911|226|3|3|5037453,12/5/18,NA,419,BRISK STRWBRY MLN TEA 1LT,253,Juice Drinks,150,Juice/tonics,106,89,226 Quasqueton,113 E Dubuque St,Quasqueton,52326,42.3946,-91.7603,ACTIVE,1.49,0.78875,0.70125,1
1745485,20180508|930|4|3|3773904,8/1/18,NA,17097,BODY ARMOR STRWBRY BAN 28OZ,252,Sports Drinks,150,Juice/tonics,132,445,930 Aurora,2500 S Abilene St,Aurora,80014,39.6704,-104.828,ACTIVE,2.69,1.19,1.5,1
1123161,20170518|409|2|2|3830032,8/11/17,NA,4351,ICEBREA MNT SR 1.5OZ TIN,264,Mints,331,Candy,45,181,409 Cave Springs,115 E Midway St,Cave Springs,72718,36.2636,-94.2313,ACTIVE,2.79,1.44692,1.34308,1
2233067,20190719|412|1|100|3952398,10/12/19,NA,18980,G87E10S,1,Fuel Premuim,78,Fuel,68,184,412 Gateway,17260 Highway 37 N,Gateway,72733,36.4909,-93.9312,ACTIVE,40,4.9602,35.0398,16.534
226586,20180730|700|1|1|391532,10/23/18,6994.34,10434,CHD SRCRM RPL 2OZ,52,Potato Chips,2,Chips,251,350,700 Montgomery,6495 Atlanta Hwy,Montgomery,36117,39.0994,-91.6456,ACTIVE,1.19,0.57437,0.61563,1
134761,20161223|838|4|1|2548816,3/18/17,NA,12364,COPENHGN EXT LC STR 1.2OZ,334,Tobacco-round Can Snuff (960),321,Smokeless (951),363,380,838 Oxford,92 Plaza Lane,Oxford,36203,35.9938,-94.5681,ACTIVE,5.04,1.4575,3.5825,1
896219,20180228|302|2|2|4962861,5/24/18,NA,13642,DR PEPPER 1LT,250,Pk Bev-csd/pop (71),243,Pop (587),448,116,302 Parkersburg,602 Coates St,Parkersburg,50665,42.577,-92.7869,ACTIVE,5,1.61,3.39,3
1882419,20170516|2731|3|3|3753491,8/9/17,NA,18732,BEER DEP 6PK,186,Beer-deposits (410),247,Beer Deposits (66),13,107,2731 Alta,106 S Cherokee St,Alta,51002,42.6745,-95.3054,ACTIVE,0.3,0,0.3,NA
1379477,20161203|556|3|2|2453834,2/26/17,NA,8590,ARIZONA ARNLD PLMR STRWBRY 23OZ CAN,251,Iced Tea,150,Juice/tonics,166,291,556 Saint Joseph,3906 Oakland Ave,Saint Joseph,64506,39.7825,-94.799,ACTIVE,0.99,0.41444,0.57556,1
1697493,20190822|914|1|100|4388650,11/15/19,NA,18978,G87E10M-B34,1,Fuel Premuim,78,Fuel,68,434,914 Centennial,2221 E Arapahoe Rd,Centennial,80122,39.5957,-104.963,ACTIVE,10,1.0911,8.9089,3.637
1180607,20190220|453|3|3|4908451,5/16/19,5770.556,10811,VEGETABLE & CHEESE OMELET FOLD,272,Breakfast Food,271,Breakfast Sandwiches,97,210,453 Butler,114 W Ohio St,Butler,64730,38.2588,-94.334,ACTIVE,1.39,0.591,0.799,1
